[{"LocationName":"W081515077453001","RegionID":18,"state":33,"DistrictName":"Tirunelveli","Block_Taluk":"Valliyoor","Village":"Thiruvambala Puram","Latitude":"8.25417000","Longitude":"77.75830000","Well_Depth":45.41,"date":"20\/10\/2024","Water_level":9.75},{"LocationName":"W081835077125102","RegionID":18,"state":33,"DistrictName":"Kanniyakumari","Block_Taluk":"Munchira","Village":"Nalloor","Latitude":"8.30972000","Longitude":"77.21420000","Well_Depth":12.06,"date":"20\/10\/2024","Water_level":12.12},{"LocationName":"W081935077063501","RegionID":19,"state":32,"DistrictName":"Thiruvananthapuram","Block_Taluk":"Parassala","Village":"Kulathoor","Latitude":"8.32722000","Longitude":"77.10170000","Well_Depth":55,"date":"20\/10\/2024","Water_level":9.12},{"LocationName":"W082000077160401","RegionID":18,"state":33,"DistrictName":"Kanniyakumari","Block_Taluk":"Thiruvattar","Village":"Thiruvattar","Latitude":"8.33333000","Longitude":"77.26780000","Well_Depth":47.7,"date":"20\/10\/2024","Water_level":8.2},{"LocationName":"W082245077072901","RegionID":19,"state":32,"DistrictName":"Thiruvananthapuram","Block_Taluk":"Perumkadavila","Village":"Udayankulangara","Latitude":"8.37987000","Longitude":"77.11990000","Well_Depth":61,"date":"20\/10\/2024","Water_level":9.32},{"LocationName":"W082310077370001","RegionID":18,"state":33,"DistrictName":"Tirunelveli","Block_Taluk":"Valliyoor","Village":"Vadakku Valliyur Part","Latitude":"8.38611000","Longitude":"77.61670000","Well_Depth":38.15,"date":"20\/10\/2024","Water_level":5.69},{"LocationName":"W082600077541001","RegionID":18,"state":33,"DistrictName":"Thoothukkudi","Block_Taluk":"Sattankulam","Village":"Sattankulam","Latitude":"8.43333000","Longitude":"77.90280000","Well_Depth":49.54,"date":"20\/10\/2024","Water_level":11.15},{"LocationName":"W082624077070301","RegionID":19,"state":32,"DistrictName":"Thiruvananthapuram","Block_Taluk":"Perumkadavila","Village":"Perumkadavila","Latitude":"8.44217000","Longitude":"77.11170000","Well_Depth":61,"date":"20\/10\/2024","Water_level":7.26},{"LocationName":"W082652077051201","RegionID":19,"state":32,"DistrictName":"Thiruvananthapuram","Block_Taluk":"Perumkadavila","Village":"Chengallur","Latitude":"8.44780000","Longitude":"77.08690000","Well_Depth":202,"date":"20\/10\/2024","Water_level":6.75},{"LocationName":"W082850077355501","RegionID":18,"state":33,"DistrictName":"Tirunelveli","Block_Taluk":"Kalakadu","Village":"Alankulam","Latitude":"8.48056000","Longitude":"77.59860000","Well_Depth":42.25,"date":"20\/10\/2024","Water_level":17.24},{"LocationName":"W083300077031002","RegionID":19,"state":32,"DistrictName":"Thiruvananthapuram","Block_Taluk":"Vellanad","Village":"Vellanad","Latitude":"8.55750000","Longitude":"77.06310000","Well_Depth":200,"date":"20\/10\/2024","Water_level":8.78},{"LocationName":"W083339077064201","RegionID":19,"state":32,"DistrictName":"Thiruvananthapuram","Block_Taluk":"Vellanad","Village":"Pattakulam","Latitude":"8.56110000","Longitude":"77.11190000","Well_Depth":200,"date":"20\/10\/2024","Water_level":4.1},{"LocationName":"W083500077425502","RegionID":18,"state":33,"DistrictName":"Tirunelveli","Block_Taluk":"Nanguneri","Village":"Thottakudi","Latitude":"8.58333000","Longitude":"77.71530000","Well_Depth":44.6,"date":"20\/10\/2024","Water_level":10.83},{"LocationName":"W083630077510001","RegionID":18,"state":33,"DistrictName":"Thoothukkudi","Block_Taluk":"Karungulam","Village":"Vallakulam","Latitude":"8.60833000","Longitude":"77.85000000","Well_Depth":36.93,"date":null,"Water_level":null},{"LocationName":"W083900077570001","RegionID":18,"state":33,"DistrictName":"Thoothukkudi","Block_Taluk":"Srivaikundam","Village":"Srimulakkarai","Latitude":"8.65000000","Longitude":"77.95000000","Well_Depth":39.8,"date":"20\/10\/2024","Water_level":3.85},{"LocationName":"W083920076520001","RegionID":19,"state":32,"DistrictName":"Thiruvananthapuram","Block_Taluk":"Pothencode","Village":"Vengod","Latitude":"8.65600000","Longitude":"76.86650000","Well_Depth":60,"date":"20\/10\/2024","Water_level":7.5},{"LocationName":"W084105076521001","RegionID":19,"state":32,"DistrictName":"Thiruvananthapuram","Block_Taluk":"Vamanapuram","Village":"Vazhakkad","Latitude":"8.68694000","Longitude":"76.86530000","Well_Depth":41.2,"date":"20\/10\/2024","Water_level":8.74},{"LocationName":"W084340077025001","RegionID":19,"state":32,"DistrictName":"Thiruvananthapuram","Block_Taluk":"Vamanapuram","Village":"Peringamala","Latitude":"8.75693000","Longitude":"77.04440000","Well_Depth":31.2,"date":null,"Water_level":null},{"LocationName":"W085031076515201","RegionID":19,"state":32,"DistrictName":"Kollam","Block_Taluk":"Chadayamangalam","Village":"Chadayamangalam","Latitude":"8.87389000","Longitude":"76.86830000","Well_Depth":200,"date":"20\/10\/2024","Water_level":1.73},{"LocationName":"W085200077540001","RegionID":18,"state":33,"DistrictName":"Thoothukkudi","Block_Taluk":"Ottapidaram","Village":"Maniyachi","Latitude":"8.86667000","Longitude":"77.90000000","Well_Depth":68.35,"date":"20\/10\/2024","Water_level":5.59},{"LocationName":"W085539076345501","RegionID":19,"state":32,"DistrictName":"Kollam","Block_Taluk":"Chittumala","Village":"Trikkadavur","Latitude":"8.92750000","Longitude":"76.58190000","Well_Depth":30,"date":"20\/10\/2024","Water_level":9.01},{"LocationName":"W085540076550001","RegionID":19,"state":32,"DistrictName":"Kollam","Block_Taluk":"Anchal","Village":"Anchal","Latitude":"8.93583000","Longitude":"76.91670000","Well_Depth":41.2,"date":"20\/10\/2024","Water_level":7.43},{"LocationName":"W085600076501601","RegionID":19,"state":32,"DistrictName":"Kollam","Block_Taluk":"Vettikkavala","Village":"Ummannoor","Latitude":"8.93330000","Longitude":"76.83780000","Well_Depth":45.7,"date":"20\/10\/2024","Water_level":9.74},{"LocationName":"W085615077025001","RegionID":19,"state":32,"DistrictName":"Kollam","Block_Taluk":"Anchal","Village":"Koovakad","Latitude":"8.94000000","Longitude":"77.04470000","Well_Depth":200,"date":"20\/10\/2024","Water_level":2.23},{"LocationName":"W090330077510001","RegionID":18,"state":33,"DistrictName":"Thoothukkudi","Block_Taluk":"Kovilpatti","Village":"Kurumalai","Latitude":"9.05833000","Longitude":"77.85000000","Well_Depth":45.7,"date":"20\/10\/2024","Water_level":7.17},{"LocationName":"W090400077204501","RegionID":18,"state":33,"DistrictName":"Tenkasi","Block_Taluk":"Kadaiyanallur","Village":"Kadayanallur","Latitude":"9.06667000","Longitude":"77.34580000","Well_Depth":45.94,"date":"20\/10\/2024","Water_level":11.11},{"LocationName":"W090512076512001","RegionID":19,"state":32,"DistrictName":"Kollam","Block_Taluk":"Pathanapuram","Village":"Pathanapuram","Latitude":"9.08667000","Longitude":"76.85560000","Well_Depth":82.3,"date":"20\/10\/2024","Water_level":0.47},{"LocationName":"W090855077430001","RegionID":18,"state":33,"DistrictName":"Thoothukkudi","Block_Taluk":"Kayathar","Village":"Kalugumalai","Latitude":"9.14861000","Longitude":"77.71670000","Well_Depth":39.23,"date":"20\/10\/2024","Water_level":8.4},{"LocationName":"W090910076462001","RegionID":19,"state":32,"DistrictName":"Pathanamthitta","Block_Taluk":"Parakode","Village":"Ezhamkulam","Latitude":"9.15278000","Longitude":"76.77220000","Well_Depth":27.4,"date":"20\/10\/2024","Water_level":7.12},{"LocationName":"W090915076305001","RegionID":19,"state":32,"DistrictName":"Alappuzha","Block_Taluk":"Muthukulam","Village":"Krishnapuram(N)","Latitude":"9.15166000","Longitude":"76.51400000","Well_Depth":317.9,"date":"20\/10\/2024","Water_level":20.08},{"LocationName":"W090915076305002","RegionID":19,"state":32,"DistrictName":"Alappuzha","Block_Taluk":"Bharanicavu","Village":"Krishnapuram(S)","Latitude":"9.15166000","Longitude":"76.51400000","Well_Depth":71.5,"date":"20\/10\/2024","Water_level":6.2},{"LocationName":"W090930077503001","RegionID":18,"state":33,"DistrictName":"Thoothukkudi","Block_Taluk":"Kovilpatti","Village":"Alampatti","Latitude":"9.15833000","Longitude":"77.84170000","Well_Depth":41.3,"date":"20\/10\/2024","Water_level":5.04},{"LocationName":"W091230076391801","RegionID":19,"state":32,"DistrictName":"Pathanamthitta","Block_Taluk":"Pandlam","Village":"Koipuram","Latitude":"9.34506000","Longitude":"76.65640000","Well_Depth":108,"date":"20\/10\/2024","Water_level":12.13},{"LocationName":"W091304077590001","RegionID":18,"state":33,"DistrictName":"Thoothukkudi","Block_Taluk":"Kovilpatti","Village":"Meenakshipuram","Latitude":"9.21778000","Longitude":"77.98330000","Well_Depth":30.07,"date":null,"Water_level":null},{"LocationName":"W091310076462801","RegionID":19,"state":32,"DistrictName":"Pathanamthitta","Block_Taluk":"Konni","Village":"Vallicode","Latitude":"9.22440000","Longitude":"76.77340000","Well_Depth":62.5,"date":"20\/10\/2024","Water_level":3.92},{"LocationName":"W091415076422601","RegionID":19,"state":32,"DistrictName":"Pathanamthitta","Block_Taluk":"Pandlam","Village":"Pandalam","Latitude":"9.22489000","Longitude":"76.67680000","Well_Depth":41.2,"date":"20\/10\/2024","Water_level":2.51},{"LocationName":"W091710076491802","RegionID":19,"state":32,"DistrictName":"Pathanamthitta","Block_Taluk":"Konni","Village":"Malayalapuzha","Latitude":"9.28678000","Longitude":"76.82310000","Well_Depth":200,"date":"20\/10\/2024","Water_level":13.1},{"LocationName":"W091714076334501","RegionID":19,"state":32,"DistrictName":"Alappuzha","Block_Taluk":"Muthukulam","Village":"Mannar","Latitude":"9.30763000","Longitude":"76.54790000","Well_Depth":30,"date":"20\/10\/2024","Water_level":5.91},{"LocationName":"W091715076275002","RegionID":19,"state":32,"DistrictName":"Alappuzha","Block_Taluk":"Harippad","Village":"Haripad(N)","Latitude":"9.28863000","Longitude":"76.46150000","Well_Depth":30,"date":"20\/10\/2024","Water_level":9.6},{"LocationName":"W091715076275004","RegionID":19,"state":32,"DistrictName":"Alappuzha","Block_Taluk":"Harippad","Village":"Haripad(C)","Latitude":"9.28863000","Longitude":"76.46150000","Well_Depth":30,"date":"20\/10\/2024","Water_level":10.32},{"LocationName":"W091715076275005","RegionID":19,"state":32,"DistrictName":"Alappuzha","Block_Taluk":"Pattanakkad","Village":"Haripad(E)","Latitude":"9.28863000","Longitude":"76.46150000","Well_Depth":30,"date":"20\/10\/2024","Water_level":10.63},{"LocationName":"W091755076440501","RegionID":19,"state":32,"DistrictName":"Pathanamthitta","Block_Taluk":"Elanthoor","Village":"Elanthoor","Latitude":"9.30091000","Longitude":"76.72990000","Well_Depth":27.4,"date":"20\/10\/2024","Water_level":2.25},{"LocationName":"W092300077333001","RegionID":18,"state":33,"DistrictName":"Virudhunagar","Block_Taluk":"Rajapalaiyam","Village":"Cholapuram","Latitude":"9.38333000","Longitude":"77.55830000","Well_Depth":21.55,"date":null,"Water_level":null},{"LocationName":"W092435076402001","RegionID":19,"state":32,"DistrictName":"Pathanamthitta","Block_Taluk":"Koipuram","Village":"Thayattumala","Latitude":"9.40691000","Longitude":"76.67650000","Well_Depth":30.5,"date":"20\/10\/2024","Water_level":9.06},{"LocationName":"W092525078212001","RegionID":18,"state":33,"DistrictName":"Ramanathapuram","Block_Taluk":"Kamudi","Village":"Thavasikurichi","Latitude":"9.40833000","Longitude":"78.40830000","Well_Depth":47.7,"date":"20\/10\/2024","Water_level":16.73},{"LocationName":"W092600076364001","RegionID":19,"state":32,"DistrictName":"Pathanamthitta","Block_Taluk":"Mallappally","Village":"Kunnamthanam","Latitude":"9.43546000","Longitude":"76.60770000","Well_Depth":21.3,"date":"20\/10\/2024","Water_level":3.65},{"LocationName":"W092647077460001","RegionID":18,"state":33,"DistrictName":"Virudhunagar","Block_Taluk":"Vembakottai","Village":"Anaiyur","Latitude":"9.44641667","Longitude":"77.76683889","Well_Depth":202.5,"date":"20\/10\/2024","Water_level":21.12},{"LocationName":"W092703076444802","RegionID":19,"state":32,"DistrictName":"Pathanamthitta","Block_Taluk":"Mallappally","Village":"Kottangal","Latitude":"9.45261000","Longitude":"76.74580000","Well_Depth":200,"date":"20\/10\/2024","Water_level":2.68},{"LocationName":"W093330077573001","RegionID":18,"state":33,"DistrictName":"Virudhunagar","Block_Taluk":"Virudhunagar","Village":"Kooraikundu","Latitude":"9.55833000","Longitude":"77.95830000","Well_Depth":30.92,"date":"20\/10\/2024","Water_level":4.7},{"LocationName":"W093630077400001","RegionID":18,"state":33,"DistrictName":"Virudhunagar","Block_Taluk":"Srivilliputtur","Village":"Sundarapandiam","Latitude":"9.60833000","Longitude":"77.66670000","Well_Depth":37.8,"date":"20\/10\/2024","Water_level":4.36},{"LocationName":"W093942077093501","RegionID":19,"state":32,"DistrictName":"Idukki","Block_Taluk":"Kattappana","Village":"Anakkara","Latitude":"9.66375000","Longitude":"77.15950000","Well_Depth":60,"date":"20\/10\/2024","Water_level":56.08},{"LocationName":"W093943078122101","RegionID":18,"state":33,"DistrictName":"Virudhunagar","Block_Taluk":"Kariapatti","Village":"Mudukkankulam","Latitude":"9.66221944","Longitude":"78.20610000","Well_Depth":202.5,"date":null,"Water_level":null},{"LocationName":"W094010076364001","RegionID":19,"state":32,"DistrictName":"Kottayam","Block_Taluk":"Pampady","Village":"Kidangoor","Latitude":"9.66567000","Longitude":"76.60910000","Well_Depth":30.5,"date":null,"Water_level":null},{"LocationName":"W094020076485001","RegionID":19,"state":32,"DistrictName":"Kottayam","Block_Taluk":"Erattupetta","Village":"Poonjar","Latitude":"9.67345000","Longitude":"76.79580000","Well_Depth":21.3,"date":null,"Water_level":null},{"LocationName":"W094500077403001","RegionID":18,"state":33,"DistrictName":"Madurai","Block_Taluk":"Sedapatti","Village":"Saptur R.F","Latitude":"9.75000000","Longitude":"77.67500000","Well_Depth":39,"date":"20\/10\/2024","Water_level":3.38},{"LocationName":"W094508077062201","RegionID":19,"state":32,"DistrictName":"Idukki","Block_Taluk":"Kattappana","Village":"Kattappana","Latitude":"9.75347000","Longitude":"77.10870000","Well_Depth":50,"date":"20\/10\/2024","Water_level":9.29},{"LocationName":"W094530076343001","RegionID":19,"state":32,"DistrictName":"Kottayam","Block_Taluk":"Uzhavoor","Village":"Kuravilangad","Latitude":"9.75734000","Longitude":"76.55330000","Well_Depth":30,"date":"20\/10\/2024","Water_level":4.26},{"LocationName":"W094709076173301","RegionID":19,"state":32,"DistrictName":"Alappuzha","Block_Taluk":"Pattanakkad","Village":"Ezhupunna","Latitude":"9.81477000","Longitude":"76.30000000","Well_Depth":30,"date":"20\/10\/2024","Water_level":1.34},{"LocationName":"W094838076234101","RegionID":19,"state":32,"DistrictName":"Kottayam","Block_Taluk":"Vaikom","Village":"Chempu","Latitude":"9.81048000","Longitude":"76.39480000","Well_Depth":54,"date":"20\/10\/2024","Water_level":2.9},{"LocationName":"W095058076411401","RegionID":19,"state":32,"DistrictName":"Idukki","Block_Taluk":"Thodupuzha","Village":"Karimkunnam","Latitude":"9.85166000","Longitude":"76.68690000","Well_Depth":30,"date":null,"Water_level":null},{"LocationName":"W095115076241501","RegionID":19,"state":32,"DistrictName":"Ernakulam","Block_Taluk":"Palluruthy","Village":"Kanjiramattom","Latitude":"9.91944000","Longitude":"76.27470000","Well_Depth":60,"date":"20\/10\/2024","Water_level":16.98},{"LocationName":"W095125076314001","RegionID":19,"state":32,"DistrictName":"Ernakulam","Block_Taluk":"Palluruthy","Village":"Namakuzhi","Latitude":"9.85495000","Longitude":"76.52450000","Well_Depth":60,"date":"20\/10\/2024","Water_level":7.78},{"LocationName":"W095125078290001","RegionID":18,"state":33,"DistrictName":"Sivaganga","Block_Taluk":"Sivaganga","Village":"Sivaganga","Latitude":"9.85694000","Longitude":"78.48330000","Well_Depth":39.9,"date":"20\/10\/2024","Water_level":24.03},{"LocationName":"W095215076340501","RegionID":19,"state":32,"DistrictName":"Ernakulam","Block_Taluk":"Mulanthuruthy","Village":"Kizhakombu","Latitude":"9.96944000","Longitude":"76.34140000","Well_Depth":40,"date":"20\/10\/2024","Water_level":3.99},{"LocationName":"W095305077170501","RegionID":18,"state":33,"DistrictName":"Theni","Block_Taluk":"Uttamapalaiyam","Village":"T.Meenatchipuram","Latitude":"9.88472000","Longitude":"77.28470000","Well_Depth":42.7,"date":"20\/10\/2024","Water_level":14.19},{"LocationName":"W095348078151802","RegionID":18,"state":33,"DistrictName":"Madurai","Block_Taluk":"Madurai East","Village":"Kunnathur Bit 1","Latitude":"9.89667000","Longitude":"78.25500000","Well_Depth":47.6,"date":"20\/10\/2024","Water_level":8.21},{"LocationName":"W095425077194702","RegionID":18,"state":33,"DistrictName":"Theni","Block_Taluk":"Uttamapalaiyam","Village":"Sangarapuram","Latitude":"9.90694000","Longitude":"77.32970000","Well_Depth":130.8,"date":"20\/10\/2024","Water_level":1.5},{"LocationName":"W095515077530001","RegionID":18,"state":33,"DistrictName":"Madurai","Block_Taluk":"Chellampatti","Village":"Thidiyan","Latitude":"9.92083000","Longitude":"77.88330000","Well_Depth":54.25,"date":"20\/10\/2024","Water_level":4.64},{"LocationName":"W095845076182901","RegionID":19,"state":32,"DistrictName":"Ernakulam","Block_Taluk":"Edappally","Village":"Kadavanthara","Latitude":"9.96695000","Longitude":"76.30630000","Well_Depth":46,"date":"20\/10\/2024","Water_level":6.67},{"LocationName":"W100117076464501","RegionID":19,"state":32,"DistrictName":"Idukki","Block_Taluk":"Elemdesam","Village":"Chullikandam","Latitude":"10.02160000","Longitude":"76.77930000","Well_Depth":200,"date":"20\/10\/2024","Water_level":2.55},{"LocationName":"W100150078200001","RegionID":18,"state":33,"DistrictName":"Madurai","Block_Taluk":"Melur","Village":"Melur Town","Latitude":"10.03060000","Longitude":"78.33330000","Well_Depth":45.75,"date":"20\/10\/2024","Water_level":0.79},{"LocationName":"W100543076260002","RegionID":19,"state":32,"DistrictName":"Ernakulam","Block_Taluk":"Kothamangalam","Village":"Mullankunnu","Latitude":"10.15280000","Longitude":"76.72470000","Well_Depth":40,"date":"20\/10\/2024","Water_level":17.02},{"LocationName":"W100618076401701","RegionID":19,"state":32,"DistrictName":"Ernakulam","Block_Taluk":"Kothamangalam","Village":"Punnakad","Latitude":"10.10690000","Longitude":"76.67050000","Well_Depth":60,"date":"20\/10\/2024","Water_level":2.26},{"LocationName":"W101138076205501","RegionID":19,"state":32,"DistrictName":"Ernakulam","Block_Taluk":"Parakkadav","Village":"Kodussery","Latitude":"10.19660000","Longitude":"76.34800000","Well_Depth":40,"date":"20\/10\/2024","Water_level":8.83},{"LocationName":"W101302076150501","RegionID":19,"state":32,"DistrictName":"Thrissur","Block_Taluk":"Mala","Village":"Poyya (Poopathy)","Latitude":"10.20980000","Longitude":"76.26420000","Well_Depth":65,"date":"20\/10\/2024","Water_level":9.63},{"LocationName":"W101358078140001","RegionID":18,"state":33,"DistrictName":"Dindigul","Block_Taluk":"Nattam","Village":"Velampatty","Latitude":"10.23280000","Longitude":"78.23330000","Well_Depth":50.7,"date":"20\/10\/2024","Water_level":3.66},{"LocationName":"W101633078334301","RegionID":18,"state":33,"DistrictName":"Pudukkottai","Block_Taluk":"Ponnamaravati","Village":"Ponnamaravathi East","Latitude":"10.27583333","Longitude":"78.56208333","Well_Depth":200,"date":"20\/10\/2024","Water_level":4.91},{"LocationName":"W101924078324601","RegionID":18,"state":33,"DistrictName":"Pudukkottai","Block_Taluk":"Ponnamaravati","Village":"Alavayal","Latitude":"10.32336111","Longitude":"78.54619444","Well_Depth":202.5,"date":"20\/10\/2024","Water_level":9.51},{"LocationName":"W102132078422501","RegionID":18,"state":33,"DistrictName":"Pudukkottai","Block_Taluk":"Annavasal","Village":"Suntharapatti","Latitude":"10.35895833","Longitude":"78.70705000","Well_Depth":202.5,"date":null,"Water_level":null},{"LocationName":"W102322078330401","RegionID":18,"state":33,"DistrictName":"Pudukkottai","Block_Taluk":"Ponnamaravati","Village":"Maravamadurai","Latitude":"10.38969444","Longitude":"78.55116667","Well_Depth":201,"date":"20\/10\/2024","Water_level":19.83},{"LocationName":"W102350078413101","RegionID":18,"state":33,"DistrictName":"Pudukkottai","Block_Taluk":"Annavasal","Village":"Kudumiyamalai R.F","Latitude":"10.39732778","Longitude":"78.69195000","Well_Depth":202.5,"date":"20\/10\/2024","Water_level":9.37},{"LocationName":"W102515076120001","RegionID":19,"state":32,"DistrictName":"Thrissur","Block_Taluk":"Cherpu","Village":"Palakal","Latitude":"10.47290000","Longitude":"76.21280000","Well_Depth":60,"date":null,"Water_level":null},{"LocationName":"W103130076595801","RegionID":18,"state":33,"DistrictName":"Coimbatore","Block_Taluk":"Anamalai","Village":"Angalakurichi","Latitude":"10.52500000","Longitude":"76.99940000","Well_Depth":48.4,"date":null,"Water_level":null},{"LocationName":"W103235076163703","RegionID":19,"state":32,"DistrictName":"Thrissur","Block_Taluk":"Anthikkad","Village":"Arimpur","Latitude":"10.49570000","Longitude":"76.14220000","Well_Depth":66,"date":"20\/10\/2024","Water_level":5.06},{"LocationName":"W103300076134801","RegionID":19,"state":32,"DistrictName":"Thrissur","Block_Taluk":"Puzhakkal","Village":"Ramavarmapuram","Latitude":"10.56520000","Longitude":"76.23350000","Well_Depth":101,"date":"20\/10\/2024","Water_level":14.14},{"LocationName":"W103331076162001","RegionID":19,"state":32,"DistrictName":"Thrissur","Block_Taluk":"Ollukkara","Village":"Madakkathara Pz","Latitude":"10.56060000","Longitude":"76.27900000","Well_Depth":101,"date":"20\/10\/2024","Water_level":9.98},{"LocationName":"W103335078433501","RegionID":18,"state":33,"DistrictName":"Pudukkottai","Block_Taluk":"Viralimalai","Village":"Lekkanapatti","Latitude":"10.55975000","Longitude":"78.72652778","Well_Depth":201,"date":"20\/10\/2024","Water_level":17.94},{"LocationName":"W103419078495601","RegionID":18,"state":33,"DistrictName":"Pudukkottai","Block_Taluk":"Kunnandarkoil","Village":"Mangathevanpatti","Latitude":"10.57216667","Longitude":"78.83227778","Well_Depth":201,"date":"20\/10\/2024","Water_level":15.57},{"LocationName":"W103500077414001","RegionID":18,"state":33,"DistrictName":"Dindigul","Block_Taluk":"Thoppampatti","Village":"Kallimandayam","Latitude":"10.58330000","Longitude":"77.69440000","Well_Depth":71.3,"date":"20\/10\/2024","Water_level":10.01},{"LocationName":"W103505076353001","RegionID":19,"state":32,"DistrictName":"Palakkad","Block_Taluk":"Nemmara","Village":"Nemmara","Latitude":"10.60190000","Longitude":"76.61610000","Well_Depth":40,"date":"20\/10\/2024","Water_level":3.17},{"LocationName":"W103530078051001","RegionID":18,"state":33,"DistrictName":"Dindigul","Block_Taluk":"Guziliamparai","Village":"Nallur","Latitude":"10.59170000","Longitude":"78.08610000","Well_Depth":44.8,"date":null,"Water_level":null},{"LocationName":"W103630078463001","RegionID":18,"state":33,"DistrictName":"Pudukkottai","Block_Taluk":"Viralimalai","Village":"Palandanpatti","Latitude":"10.60830000","Longitude":"78.77500000","Well_Depth":35.04,"date":"20\/10\/2024","Water_level":7},{"LocationName":"W103650078253003","RegionID":18,"state":33,"DistrictName":"Tiruchirappalli","Block_Taluk":"Marungapuri","Village":"Marungapuri","Latitude":"10.43602000","Longitude":"78.41077000","Well_Depth":201,"date":"20\/10\/2024","Water_level":35.95},{"LocationName":"W103737076464601","RegionID":19,"state":32,"DistrictName":"Palakkad","Block_Taluk":"Kollengode","Village":"Nellikattiri","Latitude":"10.76670000","Longitude":"76.17500000","Well_Depth":200,"date":"20\/10\/2024","Water_level":9.03},{"LocationName":"W103737076464603","RegionID":19,"state":32,"DistrictName":"Palakkad","Block_Taluk":"Chittur","Village":"Ellissery","Latitude":"10.71220000","Longitude":"76.90170000","Well_Depth":200,"date":"20\/10\/2024","Water_level":4.83},{"LocationName":"W103742076523102","RegionID":18,"state":33,"DistrictName":"Coimbatore","Block_Taluk":"Anamalai","Village":"Marchanaickenpalayam","Latitude":"10.62830000","Longitude":"76.87530000","Well_Depth":113.4,"date":"20\/10\/2024","Water_level":7.42},{"LocationName":"W103816076490001","RegionID":19,"state":32,"DistrictName":"Palakkad","Block_Taluk":"Alathur","Village":"Plachimada","Latitude":"10.63420000","Longitude":"76.59580000","Well_Depth":101.2,"date":"20\/10\/2024","Water_level":9.09},{"LocationName":"W103830076100501","RegionID":19,"state":32,"DistrictName":"Thrissur","Block_Taluk":"Wadakkanchery","Village":"Velur","Latitude":"10.63666667","Longitude":"76.16972222","Well_Depth":101,"date":"20\/10\/2024","Water_level":7.35},{"LocationName":"W103837076464602","RegionID":19,"state":32,"DistrictName":"Palakkad","Block_Taluk":"Kollengode","Village":"Ellissery","Latitude":"10.64360000","Longitude":"76.77940000","Well_Depth":200,"date":"20\/10\/2024","Water_level":34.77},{"LocationName":"W104055076491601","RegionID":19,"state":32,"DistrictName":"Palakkad","Block_Taluk":"Chittur","Village":"Ellissery","Latitude":"10.68190000","Longitude":"76.82110000","Well_Depth":200,"date":"20\/10\/2024","Water_level":5.03},{"LocationName":"W104345076112501","RegionID":19,"state":32,"DistrictName":"Thrissur","Block_Taluk":"Puzhakkal","Village":"Ayyanthole Pz","Latitude":"10.52030000","Longitude":"76.18840000","Well_Depth":101,"date":"20\/10\/2024","Water_level":8.11},{"LocationName":"W104351076382001","RegionID":19,"state":32,"DistrictName":"Palakkad","Block_Taluk":"Kuzhalmannam","Village":"Kannadi","Latitude":"10.73360000","Longitude":"76.63420000","Well_Depth":40,"date":"20\/10\/2024","Water_level":3.41},{"LocationName":"W104430076173801","RegionID":19,"state":32,"DistrictName":"Thrissur","Block_Taluk":"Pazhayannur","Village":"Cheruthuruthi","Latitude":"10.74050000","Longitude":"76.27470000","Well_Depth":54,"date":"20\/10\/2024","Water_level":24.8},{"LocationName":"W104433076033801","RegionID":19,"state":32,"DistrictName":"Malappuram","Block_Taluk":"Ponnani","Village":"Kokkur","Latitude":"10.74250000","Longitude":"76.06080000","Well_Depth":200,"date":"20\/10\/2024","Water_level":17.93},{"LocationName":"W104450078053001","RegionID":18,"state":33,"DistrictName":"Dindigul","Block_Taluk":"Guziliamparai","Village":"Kottanatham","Latitude":"10.74720000","Longitude":"78.09170000","Well_Depth":55.85,"date":"20\/10\/2024","Water_level":7.11},{"LocationName":"W104514076382001","RegionID":19,"state":32,"DistrictName":"Palakkad","Block_Taluk":"Kollengode","Village":"Koduvayur","Latitude":"10.67310000","Longitude":"76.64640000","Well_Depth":60,"date":null,"Water_level":null},{"LocationName":"W104528076375401","RegionID":19,"state":32,"DistrictName":"Palakkad","Block_Taluk":"Palakkad","Village":"Dhoni","Latitude":"10.75780000","Longitude":"76.63170000","Well_Depth":100,"date":"20\/10\/2024","Water_level":17.48},{"LocationName":"W104620076164501","RegionID":19,"state":32,"DistrictName":"Palakkad","Block_Taluk":"Pattambi","Village":"Pattambi","Latitude":"10.81030000","Longitude":"76.19180000","Well_Depth":100,"date":"20\/10\/2024","Water_level":7.2},{"LocationName":"W104630076102801","RegionID":19,"state":32,"DistrictName":"Palakkad","Block_Taluk":"Trithala","Village":"Thirumittacode","Latitude":"10.74530000","Longitude":"76.15890000","Well_Depth":85,"date":"20\/10\/2024","Water_level":9.53},{"LocationName":"W104713076001202","RegionID":19,"state":32,"DistrictName":"Malappuram","Block_Taluk":"Ponnani","Village":"Edappal","Latitude":"10.78719000","Longitude":"76.00361000","Well_Depth":200,"date":"20\/10\/2024","Water_level":20.75},{"LocationName":"W104739076501301","RegionID":19,"state":32,"DistrictName":"Palakkad","Block_Taluk":"Malampuzha","Village":"Kozhipara","Latitude":"10.79500000","Longitude":"76.74750000","Well_Depth":101.2,"date":"20\/10\/2024","Water_level":2.49},{"LocationName":"W104810076073501","RegionID":19,"state":32,"DistrictName":"Palakkad","Block_Taluk":"Trithala","Village":"Trittala","Latitude":"10.80280000","Longitude":"76.12750000","Well_Depth":100,"date":"20\/10\/2024","Water_level":6.63},{"LocationName":"W104814076463701","RegionID":19,"state":32,"DistrictName":"Palakkad","Block_Taluk":"Malampuzha","Village":"Dhoni","Latitude":"10.80390000","Longitude":"76.77690000","Well_Depth":77,"date":"20\/10\/2024","Water_level":2.25},{"LocationName":"W104831076363601","RegionID":19,"state":32,"DistrictName":"Palakkad","Block_Taluk":"Malampuzha","Village":"Dhoni","Latitude":"10.80860000","Longitude":"76.60970000","Well_Depth":112,"date":"20\/10\/2024","Water_level":15.6},{"LocationName":"W104836076394701","RegionID":19,"state":32,"DistrictName":"Palakkad","Block_Taluk":"Malampuzha","Village":"Dhoni","Latitude":"10.81000000","Longitude":"76.66310000","Well_Depth":100,"date":"20\/10\/2024","Water_level":1.85},{"LocationName":"W104859076402501","RegionID":19,"state":32,"DistrictName":"Palakkad","Block_Taluk":"Malampuzha","Village":"Malampuzha","Latitude":"10.81640000","Longitude":"76.67360000","Well_Depth":104,"date":"20\/10\/2024","Water_level":8.09},{"LocationName":"W105010076345002","RegionID":19,"state":32,"DistrictName":"Palakkad","Block_Taluk":"Chittur","Village":"Mundur","Latitude":"10.71470000","Longitude":"76.73530000","Well_Depth":100,"date":"20\/10\/2024","Water_level":33.09},{"LocationName":"W105115078423001","RegionID":18,"state":33,"DistrictName":"Tiruchirappalli","Block_Taluk":"Andanallur","Village":"Jambukeshwaram","Latitude":"10.85420000","Longitude":"78.70830000","Well_Depth":47.93,"date":"20\/10\/2024","Water_level":3.25},{"LocationName":"W105126076305601","RegionID":19,"state":32,"DistrictName":"Palakkad","Block_Taluk":"Palakkad","Village":"Kongad","Latitude":"10.85890000","Longitude":"76.51440000","Well_Depth":60,"date":"20\/10\/2024","Water_level":4.44},{"LocationName":"W105202075582101","RegionID":19,"state":32,"DistrictName":"Malappuram","Block_Taluk":"Tirur","Village":"Thiruthy","Latitude":"10.86740000","Longitude":"75.97270000","Well_Depth":147.6,"date":"20\/10\/2024","Water_level":7.12},{"LocationName":"W105208079361301","RegionID":18,"state":33,"DistrictName":"Thiruvarur","Block_Taluk":"Kodavasal","Village":"Aanaikuppam","Latitude":"10.86900356","Longitude":"79.60364269","Well_Depth":200,"date":"20\/10\/2024","Water_level":16.79},{"LocationName":"W105230076540001","RegionID":18,"state":33,"DistrictName":"Coimbatore","Block_Taluk":"Madukkarai","Village":"Ettimadai","Latitude":"10.87500000","Longitude":"76.90000000","Well_Depth":48.5,"date":null,"Water_level":null},{"LocationName":"W105238076070201","RegionID":19,"state":32,"DistrictName":"Malappuram","Block_Taluk":"Kuttippuram","Village":"Mankeri","Latitude":"10.85080000","Longitude":"76.08460000","Well_Depth":80,"date":"20\/10\/2024","Water_level":4.37},{"LocationName":"W105312078022201","RegionID":18,"state":33,"DistrictName":"Karur","Block_Taluk":"Thanthoni","Village":"Kakkavadi","Latitude":"10.88680556","Longitude":"78.03945833","Well_Depth":200,"date":null,"Water_level":null},{"LocationName":"W105343076042901","RegionID":19,"state":32,"DistrictName":"Malappuram","Block_Taluk":"Kuttippuram","Village":"Valancheri","Latitude":"10.89530000","Longitude":"76.07480000","Well_Depth":200,"date":"20\/10\/2024","Water_level":16.92},{"LocationName":"W105403076034001","RegionID":19,"state":32,"DistrictName":"Malappuram","Block_Taluk":"Kuttippuram","Village":"Thozhuvannur","Latitude":"10.90100000","Longitude":"76.06120000","Well_Depth":101,"date":"20\/10\/2024","Water_level":9.73},{"LocationName":"W105411076391001","RegionID":19,"state":32,"DistrictName":"Palakkad","Block_Taluk":"Sreekrishnapuram","Village":"Mannambetta","Latitude":"10.90360000","Longitude":"76.43580000","Well_Depth":200,"date":"20\/10\/2024","Water_level":9.43},{"LocationName":"W105455077154001","RegionID":18,"state":33,"DistrictName":"Tiruppur","Block_Taluk":"Pongalur","Village":"Thethanur","Latitude":"10.91530000","Longitude":"77.26110000","Well_Depth":66.35,"date":"20\/10\/2024","Water_level":23.55},{"LocationName":"W105530078433001","RegionID":18,"state":33,"DistrictName":"Tiruchirappalli","Block_Taluk":"Manachanellur","Village":"Avaravalli","Latitude":"10.98500000","Longitude":"78.76560000","Well_Depth":43.6,"date":"20\/10\/2024","Water_level":2.04},{"LocationName":"W105557079501701","RegionID":18,"state":34,"DistrictName":"Karaikal","Block_Taluk":"Karaikal","Village":"Karai Kovilpathu","Latitude":"10.98242000","Longitude":"79.82070000","Well_Depth":205,"date":null,"Water_level":null},{"LocationName":"W105600076010002","RegionID":19,"state":32,"DistrictName":"Malappuram","Block_Taluk":"Kuttippuram","Village":"Angadipuram","Latitude":"10.96760000","Longitude":"76.27510000","Well_Depth":200,"date":"20\/10\/2024","Water_level":3.64},{"LocationName":"W105602079464801","RegionID":18,"state":34,"DistrictName":"Karaikal","Block_Taluk":"Thirunallar","Village":"Thenoor","Latitude":"10.92936200","Longitude":"79.78375200","Well_Depth":125,"date":null,"Water_level":null},{"LocationName":"W105846075580901","RegionID":19,"state":32,"DistrictName":"Malappuram","Block_Taluk":"Ponnani","Village":"Klari Moochikkal","Latitude":"10.99020000","Longitude":"75.97800000","Well_Depth":200,"date":"20\/10\/2024","Water_level":0.15},{"LocationName":"W105904076041301","RegionID":19,"state":32,"DistrictName":"Malappuram","Block_Taluk":"Malappuram","Village":"Ponmala","Latitude":"10.98470000","Longitude":"76.07030000","Well_Depth":40,"date":"20\/10\/2024","Water_level":6.57},{"LocationName":"W110018077241401","RegionID":18,"state":33,"DistrictName":"Tiruppur","Block_Taluk":"Pongalur","Village":"North Avinasipalayam","Latitude":"11.00500000","Longitude":"77.40390000","Well_Depth":59.6,"date":null,"Water_level":null},{"LocationName":"W110030076292001","RegionID":19,"state":32,"DistrictName":"Palakkad","Block_Taluk":"Mannarkad","Village":"Thenkara","Latitude":"11.01280000","Longitude":"76.49190000","Well_Depth":60,"date":"20\/10\/2024","Water_level":1.45},{"LocationName":"W110045076181701","RegionID":19,"state":32,"DistrictName":"Malappuram","Block_Taluk":"Perinthalmanna","Village":"Vettathur","Latitude":"11.01270000","Longitude":"76.30490000","Well_Depth":200,"date":"20\/10\/2024","Water_level":12.14},{"LocationName":"W110148077170001","RegionID":18,"state":33,"DistrictName":"Tiruppur","Block_Taluk":"Palladam","Village":"Naranapuram","Latitude":"11.03000000","Longitude":"77.28330000","Well_Depth":59.25,"date":"20\/10\/2024","Water_level":12.33},{"LocationName":"W110245078573001","RegionID":18,"state":33,"DistrictName":"Tiruchirappalli","Block_Taluk":"Pullambadi","Village":"Malvoi","Latitude":"11.04580000","Longitude":"78.95830000","Well_Depth":45.3,"date":null,"Water_level":null},{"LocationName":"W110300077450001","RegionID":18,"state":33,"DistrictName":"Tiruppur","Block_Taluk":"Vellakoil","Village":"C.Muttur","Latitude":"11.05000000","Longitude":"77.75000000","Well_Depth":58.13,"date":"20\/10\/2024","Water_level":6.78},{"LocationName":"W110505076100002","RegionID":19,"state":32,"DistrictName":"Malappuram","Block_Taluk":"Malappuram","Village":"Pandalur","Latitude":"11.08490000","Longitude":"76.16710000","Well_Depth":101,"date":"20\/10\/2024","Water_level":6},{"LocationName":"W110516076071901","RegionID":19,"state":32,"DistrictName":"Malappuram","Block_Taluk":"Malappuram","Village":"Anakkayam","Latitude":"11.08950000","Longitude":"76.11900000","Well_Depth":200,"date":"20\/10\/2024","Water_level":5.58},{"LocationName":"W110550077211001","RegionID":18,"state":33,"DistrictName":"Tiruppur","Block_Taluk":"Tiruppur","Village":"Tiruppur","Latitude":"11.09720000","Longitude":"77.35280000","Well_Depth":69.38,"date":"20\/10\/2024","Water_level":5.73},{"LocationName":"W110551078284501","RegionID":18,"state":33,"DistrictName":"Tiruchirappalli","Block_Taluk":"Tattayyangarpettai","Village":"Valaieduppu","Latitude":"11.09750000","Longitude":"78.47916667","Well_Depth":200,"date":"20\/10\/2024","Water_level":1},{"LocationName":"W110610075553102","RegionID":19,"state":32,"DistrictName":"Malappuram","Block_Taluk":"Tirurangadi","Village":"Parambilpeedika","Latitude":"11.09990000","Longitude":"75.92040000","Well_Depth":60,"date":"20\/10\/2024","Water_level":27.92},{"LocationName":"W110728076200801","RegionID":19,"state":32,"DistrictName":"Malappuram","Block_Taluk":"Kalikavu","Village":"Karavarakundu","Latitude":"11.12230000","Longitude":"76.33450000","Well_Depth":101,"date":null,"Water_level":null},{"LocationName":"W110744075594401","RegionID":19,"state":32,"DistrictName":"Malappuram","Block_Taluk":"Kondotty","Village":"Nediyirippu Pz","Latitude":"11.13200000","Longitude":"75.98900000","Well_Depth":101,"date":"20\/10\/2024","Water_level":1.43},{"LocationName":"W110911076384501","RegionID":19,"state":32,"DistrictName":"Palakkad","Block_Taluk":"Attappadi","Village":"Pudur","Latitude":"11.15390000","Longitude":"76.64470000","Well_Depth":100,"date":"20\/10\/2024","Water_level":20.6},{"LocationName":"W110915078011501","RegionID":18,"state":33,"DistrictName":"Namakkal","Block_Taluk":"Paramathy","Village":"Paramathi","Latitude":"11.15420000","Longitude":"78.02080000","Well_Depth":49.12,"date":"20\/10\/2024","Water_level":1.77},{"LocationName":"W110920076400503","RegionID":19,"state":32,"DistrictName":"Palakkad","Block_Taluk":"Attappadi","Village":"Anakatty(Sholayur)","Latitude":"11.15830000","Longitude":"76.66540000","Well_Depth":100,"date":"20\/10\/2024","Water_level":8.46},{"LocationName":"W111030075523801","RegionID":19,"state":32,"DistrictName":"Kozhikode","Block_Taluk":"Kozhikode","Village":"Ramanattukara","Latitude":"11.17520000","Longitude":"75.87730000","Well_Depth":200,"date":"20\/10\/2024","Water_level":1.06},{"LocationName":"W111045076453001","RegionID":18,"state":33,"DistrictName":"Coimbatore","Block_Taluk":"Karamadai","Village":"Gopanari R.F","Latitude":"11.17920000","Longitude":"76.75830000","Well_Depth":52.25,"date":"20\/10\/2024","Water_level":8.27},{"LocationName":"W111138076142702","RegionID":19,"state":32,"DistrictName":"Malappuram","Block_Taluk":"Wandoor","Village":"Wandoor","Latitude":"11.19520000","Longitude":"76.24040000","Well_Depth":200,"date":"20\/10\/2024","Water_level":14.76},{"LocationName":"W111228075491401","RegionID":19,"state":32,"DistrictName":"Kozhikode","Block_Taluk":"Perambra","Village":"Cheruvannur","Latitude":"11.20770000","Longitude":"75.81880000","Well_Depth":40,"date":"20\/10\/2024","Water_level":4.74},{"LocationName":"W111330077263701","RegionID":18,"state":33,"DistrictName":"Tiruppur","Block_Taluk":"Uttukkuli","Village":"Sengalipalayam","Latitude":"11.22500000","Longitude":"77.44360000","Well_Depth":63.6,"date":"20\/10\/2024","Water_level":23.41},{"LocationName":"W111500077543001","RegionID":18,"state":33,"DistrictName":"Namakkal","Block_Taluk":"Kabilamalai","Village":"Sullipalayam","Latitude":"11.25000000","Longitude":"77.90830000","Well_Depth":49.5,"date":"20\/10\/2024","Water_level":4.59},{"LocationName":"W111530078563001","RegionID":18,"state":33,"DistrictName":"Perambalur","Block_Taluk":"Perambalur","Village":"Sengunam","Latitude":"11.25830000","Longitude":"78.94170000","Well_Depth":42,"date":"20\/10\/2024","Water_level":3.29},{"LocationName":"W111600077583001","RegionID":18,"state":33,"DistrictName":"Namakkal","Block_Taluk":"Paramathy","Village":"Kolaram","Latitude":"11.26670000","Longitude":"77.97500000","Well_Depth":64.22,"date":"20\/10\/2024","Water_level":8.85},{"LocationName":"W111654076175001","RegionID":19,"state":32,"DistrictName":"Malappuram","Block_Taluk":"Nilambur","Village":"Karulai","Latitude":"11.28380000","Longitude":"76.29620000","Well_Depth":33,"date":"20\/10\/2024","Water_level":2.44},{"LocationName":"W111719075494201","RegionID":19,"state":32,"DistrictName":"Kozhikode","Block_Taluk":"Kozhikode","Village":"Vellimadakunnu","Latitude":"11.29070000","Longitude":"75.81640000","Well_Depth":35,"date":"20\/10\/2024","Water_level":20.43},{"LocationName":"W111753075500301","RegionID":19,"state":32,"DistrictName":"Kozhikode","Block_Taluk":"Kunnamangalam","Village":"Moozhikkal","Latitude":"11.29820000","Longitude":"75.83420000","Well_Depth":200,"date":"20\/10\/2024","Water_level":5.12},{"LocationName":"W112013078410701","RegionID":18,"state":33,"DistrictName":"Perambalur","Block_Taluk":"Veppanthattai","Village":"Malayalapatti","Latitude":"11.33690000","Longitude":"78.68530000","Well_Depth":48.4,"date":"20\/10\/2024","Water_level":2.9},{"LocationName":"W112044076021202","RegionID":19,"state":32,"DistrictName":"Kozhikode","Block_Taluk":"Koduvally","Village":"Koodaranji","Latitude":"11.34564000","Longitude":"76.03684000","Well_Depth":200,"date":"20\/10\/2024","Water_level":6.85},{"LocationName":"W112100077100001","RegionID":18,"state":33,"DistrictName":"Erode","Block_Taluk":"Bhavanisagar","Village":"Punjai Puliampatti","Latitude":"11.35000000","Longitude":"77.16670000","Well_Depth":48.8,"date":"20\/10\/2024","Water_level":7.83},{"LocationName":"W112237076173802","RegionID":19,"state":32,"DistrictName":"Malappuram","Block_Taluk":"Nilambur","Village":"Karunechi","Latitude":"11.37710000","Longitude":"76.30270000","Well_Depth":100,"date":"20\/10\/2024","Water_level":15.74},{"LocationName":"W112331079422601","RegionID":18,"state":33,"DistrictName":"Cuddalore","Block_Taluk":"Keerapalayam","Village":"C Kothangudi","Latitude":"11.39194444","Longitude":"79.70722222","Well_Depth":261,"date":"20\/10\/2024","Water_level":44.53},{"LocationName":"W112643075472801","RegionID":19,"state":32,"DistrictName":"Kozhikode","Block_Taluk":"Balusseri","Village":"Kokallur","Latitude":"11.44730000","Longitude":"75.79060000","Well_Depth":35,"date":"20\/10\/2024","Water_level":7.76},{"LocationName":"W112700077270001","RegionID":18,"state":33,"DistrictName":"Erode","Block_Taluk":"Gopichettipalaiyam","Village":"Veerapandi","Latitude":"11.45000000","Longitude":"77.45000000","Well_Depth":200,"date":"20\/10\/2024","Water_level":8.44},{"LocationName":"W112730075463002","RegionID":19,"state":32,"DistrictName":"Kozhikode","Block_Taluk":"Balusseri","Village":"Ulliyeri","Latitude":"11.44660000","Longitude":"75.73950000","Well_Depth":200,"date":"20\/10\/2024","Water_level":0.88},{"LocationName":"W112730077080001","RegionID":18,"state":33,"DistrictName":"Erode","Block_Taluk":"Bhavanisagar","Village":"Thoppampalayam","Latitude":"11.45830000","Longitude":"77.13330000","Well_Depth":39.26,"date":"20\/10\/2024","Water_level":2.83},{"LocationName":"W112830078441501","RegionID":18,"state":33,"DistrictName":"Salem","Block_Taluk":"Talavasal","Village":"Viraganur","Latitude":"11.47500000","Longitude":"78.73750000","Well_Depth":51.15,"date":"20\/10\/2024","Water_level":11.35},{"LocationName":"W112905077413001","RegionID":18,"state":33,"DistrictName":"Erode","Block_Taluk":"Bhavani","Village":"Bhavani","Latitude":"11.48470000","Longitude":"77.69170000","Well_Depth":30.24,"date":"20\/10\/2024","Water_level":217.45},{"LocationName":"W113000075462501","RegionID":19,"state":32,"DistrictName":"Kozhikode","Block_Taluk":"Balusseri","Village":"Karuvannur","Latitude":"11.50230000","Longitude":"75.77340000","Well_Depth":30,"date":"20\/10\/2024","Water_level":1.13},{"LocationName":"W113045079004001","RegionID":18,"state":33,"DistrictName":"Cuddalore","Block_Taluk":"Mangalur","Village":"Mangalur","Latitude":"11.51250000","Longitude":"79.01110000","Well_Depth":47.93,"date":null,"Water_level":null},{"LocationName":"W113330077175701","RegionID":18,"state":33,"DistrictName":"Erode","Block_Taluk":"Satyamangalam","Village":"Kempanayakkanpalayam","Latitude":"11.55833333","Longitude":"77.29916667","Well_Depth":0,"date":null,"Water_level":null},{"LocationName":"W113339075382501","RegionID":19,"state":32,"DistrictName":"Kozhikode","Block_Taluk":"Thodannur","Village":"Maniyur","Latitude":"11.56110000","Longitude":"75.64040000","Well_Depth":200,"date":"20\/10\/2024","Water_level":35.11},{"LocationName":"W113350076055801","RegionID":19,"state":32,"DistrictName":"Wayanad","Block_Taluk":"Kalpetta","Village":"Pookode","Latitude":"11.53540000","Longitude":"76.02930000","Well_Depth":35,"date":"20\/10\/2024","Water_level":2.4},{"LocationName":"W113400077540001","RegionID":18,"state":33,"DistrictName":"Salem","Block_Taluk":"Konganapuram","Village":"Erumaipatti","Latitude":"11.56670000","Longitude":"77.90000000","Well_Depth":45.4,"date":"20\/10\/2024","Water_level":2.39},{"LocationName":"W113500075393401","RegionID":19,"state":32,"DistrictName":"Kozhikode","Block_Taluk":"Thodannur","Village":"Thodannur(West)","Latitude":"11.58500000","Longitude":"75.65800000","Well_Depth":35,"date":"20\/10\/2024","Water_level":1.75},{"LocationName":"W113500077473001","RegionID":18,"state":33,"DistrictName":"Salem","Block_Taluk":"Idappadi","Village":"Arasiramani Bit.1","Latitude":"11.58330000","Longitude":"77.79170000","Well_Depth":48.6,"date":"20\/10\/2024","Water_level":54.3},{"LocationName":"W113512079320001","RegionID":18,"state":33,"DistrictName":"Cuddalore","Block_Taluk":"Kurinjipadi","Village":"Vanathirayapuram","Latitude":"11.58670000","Longitude":"79.53330000","Well_Depth":199.4,"date":"20\/10\/2024","Water_level":85.87},{"LocationName":"W113555075453502","RegionID":19,"state":32,"DistrictName":"Kozhikode","Block_Taluk":"Perambra","Village":"Kalikadavu","Latitude":"11.60130000","Longitude":"75.75790000","Well_Depth":30,"date":"20\/10\/2024","Water_level":3.16},{"LocationName":"W113803078523501","RegionID":18,"state":33,"DistrictName":"Kallakurichi","Block_Taluk":"Chinnasalem","Village":"Chinnasalem","Latitude":"11.63420000","Longitude":"78.87640000","Well_Depth":69.7,"date":"20\/10\/2024","Water_level":1},{"LocationName":"W113830077410001","RegionID":18,"state":33,"DistrictName":"Erode","Block_Taluk":"Ammapet","Village":"Ilipulli","Latitude":"11.64170000","Longitude":"77.68330000","Well_Depth":32.5,"date":"20\/10\/2024","Water_level":15.29},{"LocationName":"W113839077493001","RegionID":18,"state":33,"DistrictName":"Salem","Block_Taluk":"Idappadi","Village":"Chittur Bit 1","Latitude":"11.64420000","Longitude":"77.82500000","Well_Depth":199.2,"date":null,"Water_level":null},{"LocationName":"W114023075332101","RegionID":19,"state":32,"DistrictName":"Kozhikode","Block_Taluk":"Vadakara","Village":"Chombala","Latitude":"11.67540000","Longitude":"75.55420000","Well_Depth":19,"date":"20\/10\/2024","Water_level":2.28},{"LocationName":"W114023075332102","RegionID":19,"state":32,"DistrictName":"Kozhikode","Block_Taluk":"Vadakara","Village":"Chombala","Latitude":"11.67550000","Longitude":"75.55430000","Well_Depth":19,"date":"20\/10\/2024","Water_level":2.58},{"LocationName":"W114023075332103","RegionID":19,"state":32,"DistrictName":"Kozhikode","Block_Taluk":"Vadakara","Village":"Chombala","Latitude":"11.67550000","Longitude":"75.55440000","Well_Depth":18.5,"date":"20\/10\/2024","Water_level":2.82},{"LocationName":"W114052076002401","RegionID":19,"state":32,"DistrictName":"Wayanad","Block_Taluk":"Mananthavady","Village":"Valliyurkavu(W)","Latitude":"11.80320000","Longitude":"76.02990000","Well_Depth":120,"date":"20\/10\/2024","Water_level":1.51},{"LocationName":"W114052076002501","RegionID":19,"state":32,"DistrictName":"Wayanad","Block_Taluk":"Mananthavady","Village":"Valliyurkavu(E)","Latitude":"11.80320000","Longitude":"76.03010000","Well_Depth":120,"date":"20\/10\/2024","Water_level":1.4},{"LocationName":"W114222075381301","RegionID":19,"state":32,"DistrictName":"Kozhikode","Block_Taluk":"Thuneri","Village":"Thuneri","Latitude":"11.70770000","Longitude":"75.63470000","Well_Depth":35,"date":"20\/10\/2024","Water_level":3.56},{"LocationName":"W114350079053001","RegionID":18,"state":33,"DistrictName":"Kallakurichi","Block_Taluk":"Thiagadurgam","Village":"Periyamampattu","Latitude":"11.73060000","Longitude":"79.09170000","Well_Depth":40.8,"date":"20\/10\/2024","Water_level":2.82},{"LocationName":"W114530077534501","RegionID":18,"state":33,"DistrictName":"Salem","Block_Taluk":"Nangavalli","Village":"Nangavalli","Latitude":"11.75830000","Longitude":"77.89580000","Well_Depth":65.1,"date":"20\/10\/2024","Water_level":8.1},{"LocationName":"W114613079440301","RegionID":18,"state":33,"DistrictName":"Cuddalore","Block_Taluk":"Cuddalore","Village":"Nathapattu","Latitude":"11.77027778","Longitude":"79.73416667","Well_Depth":200,"date":null,"Water_level":null},{"LocationName":"W115100075441001","RegionID":19,"state":32,"DistrictName":"Kannur","Block_Taluk":"Peravoor","Village":"Kommery","Latitude":"11.85160000","Longitude":"75.72350000","Well_Depth":40,"date":"20\/10\/2024","Water_level":3.73},{"LocationName":"W115431075452101","RegionID":19,"state":32,"DistrictName":"Kannur","Block_Taluk":"Peravoor","Village":"Manathana","Latitude":"11.91100000","Longitude":"75.75670000","Well_Depth":38,"date":"20\/10\/2024","Water_level":5.51},{"LocationName":"W115432079450301","RegionID":18,"state":34,"DistrictName":"Pondicherry","Block_Taluk":"Villianur","Village":"Villianur","Latitude":"11.90922100","Longitude":"79.75112700","Well_Depth":125,"date":null,"Water_level":null},{"LocationName":"W115500076560001","RegionID":17,"state":29,"DistrictName":"Chamarajanagara","Block_Taluk":"Chamarajanagar","Village":"Chamarajanagar [R]","Latitude":"11.91670000","Longitude":"76.93330000","Well_Depth":50,"date":"20\/10\/2024","Water_level":10.97},{"LocationName":"W115700078030001","RegionID":18,"state":33,"DistrictName":"Dharmapuri","Block_Taluk":"Nallampalli","Village":"Thoppur","Latitude":"11.95000000","Longitude":"78.05000000","Well_Depth":94,"date":"20\/10\/2024","Water_level":6.4},{"LocationName":"W115830075240001","RegionID":19,"state":32,"DistrictName":"Kannur","Block_Taluk":"Taliparamba","Village":"Parassinikadavu","Latitude":"11.98460000","Longitude":"75.40080000","Well_Depth":49.68,"date":null,"Water_level":null},{"LocationName":"W120052079510001","RegionID":18,"state":34,"DistrictName":"Pondicherry","Block_Taluk":"Puducherry","Village":"Pillaichavadi","Latitude":"12.01464400","Longitude":"79.85024400","Well_Depth":205,"date":null,"Water_level":null},{"LocationName":"W120230077014501","RegionID":17,"state":29,"DistrictName":"Chamarajanagara","Block_Taluk":"Yelandur","Village":"Yelandur","Latitude":"12.04170000","Longitude":"77.02920000","Well_Depth":50,"date":"20\/10\/2024","Water_level":5.02},{"LocationName":"W120300076590001","RegionID":17,"state":29,"DistrictName":"Chamarajanagara","Block_Taluk":"Chamarajanagar","Village":"Santhemarahalli","Latitude":"12.05000000","Longitude":"76.98330000","Well_Depth":65,"date":null,"Water_level":null},{"LocationName":"W120600076200001","RegionID":17,"state":29,"DistrictName":"Mysuru","Block_Taluk":"Heggadadevankote","Village":"Heggadadevanakote","Latitude":"12.10000000","Longitude":"76.33330000","Well_Depth":60,"date":"20\/10\/2024","Water_level":8.33},{"LocationName":"W120731075255001","RegionID":19,"state":32,"DistrictName":"Kannur","Block_Taluk":"Taliparamba","Village":"Oduvallithattu","Latitude":"12.13700000","Longitude":"75.44060000","Well_Depth":40,"date":null,"Water_level":null},{"LocationName":"W120817075170501","RegionID":19,"state":32,"DistrictName":"Kannur","Block_Taluk":"Payyannur","Village":"Perul","Latitude":"12.13830000","Longitude":"75.28480000","Well_Depth":200,"date":"20\/10\/2024","Water_level":4.46},{"LocationName":"W120930075135002","RegionID":19,"state":32,"DistrictName":"Kannur","Block_Taluk":"Payyannur","Village":"Kankole","Latitude":"12.17870000","Longitude":"75.24730000","Well_Depth":37.5,"date":"20\/10\/2024","Water_level":7.21},{"LocationName":"W121103076220001","RegionID":17,"state":29,"DistrictName":"Mysuru","Block_Taluk":"Hunsur","Village":"Karimuddanahalli","Latitude":"12.18420000","Longitude":"76.36670000","Well_Depth":47,"date":null,"Water_level":null},{"LocationName":"W121139078174201","RegionID":18,"state":33,"DistrictName":"Dharmapuri","Block_Taluk":"Morappur","Village":"Jakkupatti","Latitude":"12.19420000","Longitude":"78.29500000","Well_Depth":199.1,"date":null,"Water_level":null},{"LocationName":"W121206078211601","RegionID":18,"state":33,"DistrictName":"Dharmapuri","Block_Taluk":"Morappur","Village":"Ichchambadi","Latitude":"12.20170000","Longitude":"78.35440000","Well_Depth":199,"date":null,"Water_level":null},{"LocationName":"W121215075483001","RegionID":17,"state":29,"DistrictName":"Kodagu","Block_Taluk":"Virajpet","Village":"Virajpet","Latitude":"12.20420000","Longitude":"75.80830000","Well_Depth":90,"date":"20\/10\/2024","Water_level":14.67},{"LocationName":"W121230078423001","RegionID":18,"state":33,"DistrictName":"Tiruvannamalai","Block_Taluk":"Chengam","Village":"Melravandavadi","Latitude":"12.20830000","Longitude":"78.70830000","Well_Depth":49,"date":null,"Water_level":null},{"LocationName":"W121321075184201","RegionID":19,"state":32,"DistrictName":"Kannur","Block_Taluk":"Payyannur","Village":"Peringome","Latitude":"12.22260000","Longitude":"75.31170000","Well_Depth":200,"date":null,"Water_level":null},{"LocationName":"W121510079304501","RegionID":18,"state":33,"DistrictName":"Viluppuram","Block_Taluk":"Vallam","Village":"Vallam","Latitude":"12.25580000","Longitude":"79.50720000","Well_Depth":16,"date":"20\/10\/2024","Water_level":5.63},{"LocationName":"W121702075142501","RegionID":19,"state":32,"DistrictName":"Kasaragod","Block_Taluk":"Parappa","Village":"Karindalam","Latitude":"12.28750000","Longitude":"75.24720000","Well_Depth":39,"date":"20\/10\/2024","Water_level":20.11},{"LocationName":"W121800076383001","RegionID":17,"state":29,"DistrictName":"Mysuru","Block_Taluk":"Mysuru","Village":"Mysore","Latitude":"12.30000000","Longitude":"76.64170000","Well_Depth":52,"date":"20\/10\/2024","Water_level":11.52},{"LocationName":"W121804078164601","RegionID":18,"state":33,"DistrictName":"Krishnagiri","Block_Taluk":"Kaveripattinam","Village":"Pannandur","Latitude":"12.30132778","Longitude":"78.27953889","Well_Depth":200,"date":"20\/10\/2024","Water_level":2.72},{"LocationName":"W121830076173001","RegionID":17,"state":29,"DistrictName":"Mysuru","Block_Taluk":"Hunsur","Village":"Hunsur","Latitude":"12.30830000","Longitude":"76.29170000","Well_Depth":50,"date":null,"Water_level":null},{"LocationName":"W121900076506001","RegionID":17,"state":29,"DistrictName":"Mysuru","Block_Taluk":"Tirumakudal-Narsipur","Village":"Bannur","Latitude":"12.31670000","Longitude":"76.85000000","Well_Depth":60,"date":"20\/10\/2024","Water_level":1.77},{"LocationName":"W121930075054001","RegionID":19,"state":32,"DistrictName":"Kasaragod","Block_Taluk":"Kanhangad","Village":"Bella","Latitude":"12.32410000","Longitude":"75.09420000","Well_Depth":34,"date":"20\/10\/2024","Water_level":9.79},{"LocationName":"W122000076060001","RegionID":17,"state":29,"DistrictName":"Mysuru","Block_Taluk":"Piriyapatna","Village":"Piriyapatna","Latitude":"12.33330000","Longitude":"76.10000000","Well_Depth":50,"date":"20\/10\/2024","Water_level":9.03},{"LocationName":"W122140078524501","RegionID":18,"state":33,"DistrictName":"Tiruvannamalai","Block_Taluk":"Pudupalayam","Village":"Karapattu","Latitude":"12.36110000","Longitude":"78.87920000","Well_Depth":49.4,"date":null,"Water_level":null},{"LocationName":"W122230075054501","RegionID":19,"state":32,"DistrictName":"Kasaragod","Block_Taluk":"Kanhangad","Village":"Chalingal","Latitude":"12.38270000","Longitude":"75.10050000","Well_Depth":32,"date":"20\/10\/2024","Water_level":6.01},{"LocationName":"W122230075540001","RegionID":17,"state":29,"DistrictName":"Kodagu","Block_Taluk":"Kushalanagar","Village":"Nanjarayapatna","Latitude":"12.37500000","Longitude":"75.90000000","Well_Depth":45,"date":"20\/10\/2024","Water_level":18.74},{"LocationName":"W122315075313001","RegionID":17,"state":29,"DistrictName":"Kodagu","Block_Taluk":"Madikeri","Village":"Bhagamandala","Latitude":"12.38750000","Longitude":"75.52500000","Well_Depth":56,"date":"20\/10\/2024","Water_level":13.22},{"LocationName":"W122445078134501","RegionID":18,"state":33,"DistrictName":"Krishnagiri","Block_Taluk":"Kaveripattinam","Village":"Kaveripatnam","Latitude":"12.41250000","Longitude":"78.22920000","Well_Depth":45,"date":"20\/10\/2024","Water_level":3.21},{"LocationName":"W122515075045201","RegionID":19,"state":32,"DistrictName":"Kasaragod","Block_Taluk":"Kanhangad","Village":"Periya","Latitude":"12.42110000","Longitude":"75.08150000","Well_Depth":34,"date":"20\/10\/2024","Water_level":4.11},{"LocationName":"W122750075033004","RegionID":19,"state":32,"DistrictName":"Kasaragod","Block_Taluk":"Kasargod","Village":"Vidyanagar","Latitude":"12.52020000","Longitude":"75.01680000","Well_Depth":50,"date":"20\/10\/2024","Water_level":17.1},{"LocationName":"W122800076230001","RegionID":17,"state":29,"DistrictName":"Mysuru","Block_Taluk":"Krishnarajanagara","Village":"Krishnarajanagara","Latitude":"12.46670000","Longitude":"76.38330000","Well_Depth":60,"date":"20\/10\/2024","Water_level":8.78},{"LocationName":"W122800077040001","RegionID":17,"state":29,"DistrictName":"Mandya","Block_Taluk":"Maddur","Village":"Malavalli","Latitude":"12.46670000","Longitude":"77.06670000","Well_Depth":60,"date":null,"Water_level":null},{"LocationName":"W122815076063001","RegionID":17,"state":29,"DistrictName":"Mysuru","Block_Taluk":"Piriyapatna","Village":"Bettdapura","Latitude":"12.47080000","Longitude":"76.10830000","Well_Depth":53,"date":"20\/10\/2024","Water_level":6.54},{"LocationName":"W122819078125501","RegionID":18,"state":33,"DistrictName":"Krishnagiri","Block_Taluk":"Krishnagiri","Village":"Sundekuppam","Latitude":"12.47212778","Longitude":"78.21543611","Well_Depth":200,"date":"20\/10\/2024","Water_level":11.01},{"LocationName":"W123015075053501","RegionID":19,"state":32,"DistrictName":"Kasaragod","Block_Taluk":"Karadka","Village":"Bovikkanam","Latitude":"12.50610000","Longitude":"75.09110000","Well_Depth":34,"date":"20\/10\/2024","Water_level":11.61},{"LocationName":"W123230078213001","RegionID":18,"state":33,"DistrictName":"Krishnagiri","Block_Taluk":"Bargur","Village":"Bargur","Latitude":"12.54580000","Longitude":"78.35830000","Well_Depth":120,"date":"20\/10\/2024","Water_level":7.08},{"LocationName":"W123242075042002","RegionID":19,"state":32,"DistrictName":"Kasaragod","Block_Taluk":"Kasargod","Village":"Nellekate 2","Latitude":"12.54503000","Longitude":"75.07234000","Well_Depth":100,"date":"20\/10\/2024","Water_level":12.11},{"LocationName":"W123300076150001","RegionID":17,"state":29,"DistrictName":"Mysuru","Block_Taluk":"Krishnarajanagara","Village":"Saligrama","Latitude":"12.55000000","Longitude":"76.25000000","Well_Depth":55,"date":"20\/10\/2024","Water_level":4.08},{"LocationName":"W123312075230201","RegionID":17,"state":29,"DistrictName":"Dakshina Kannada","Block_Taluk":"Sulya","Village":"Sulya","Latitude":"12.55330000","Longitude":"75.38390000","Well_Depth":50,"date":"20\/10\/2024","Water_level":12.26},{"LocationName":"W123330077253001","RegionID":17,"state":29,"DistrictName":"Ramanagara","Block_Taluk":"Kanakapura","Village":"Kanakapura","Latitude":"12.55830000","Longitude":"77.42500000","Well_Depth":50,"date":"20\/10\/2024","Water_level":4.33},{"LocationName":"W123353079434501","RegionID":18,"state":33,"DistrictName":"Kancheepuram","Block_Taluk":"Uttiramerur","Village":"Arasanimangalam","Latitude":"12.56890000","Longitude":"79.72330000","Well_Depth":45.51,"date":"20\/10\/2024","Water_level":2.9},{"LocationName":"W123430075000801","RegionID":19,"state":32,"DistrictName":"Kasaragod","Block_Taluk":"Kasargod","Village":"Seethamgulli","Latitude":"12.58810000","Longitude":"75.00050000","Well_Depth":31,"date":"20\/10\/2024","Water_level":6.01},{"LocationName":"W123523074565502","RegionID":19,"state":32,"DistrictName":"Kasaragod","Block_Taluk":"Kasargod","Village":"Kumbala","Latitude":"12.59050000","Longitude":"74.94860000","Well_Depth":31.4,"date":"20\/10\/2024","Water_level":8.45},{"LocationName":"W123550078075901","RegionID":18,"state":33,"DistrictName":"Krishnagiri","Block_Taluk":"Veppanapalli","Village":"Kurubarapalli","Latitude":"12.59742333","Longitude":"78.13308806","Well_Depth":183,"date":"20\/10\/2024","Water_level":15.21},{"LocationName":"W123600075510001","RegionID":17,"state":29,"DistrictName":"Kodagu","Block_Taluk":"Somvarpet","Village":"Somvarpet","Latitude":"12.60000000","Longitude":"75.85000000","Well_Depth":45,"date":"20\/10\/2024","Water_level":3.39},{"LocationName":"W123609078110701","RegionID":18,"state":33,"DistrictName":"Krishnagiri","Block_Taluk":"Veppanapalli","Village":"Billanakuppam","Latitude":"12.60265556","Longitude":"78.18528611","Well_Depth":200,"date":"20\/10\/2024","Water_level":22.11},{"LocationName":"W123649078010301","RegionID":18,"state":33,"DistrictName":"Krishnagiri","Block_Taluk":"Shoolagiri","Village":"Enusonai","Latitude":"12.61379167","Longitude":"78.01756667","Well_Depth":200,"date":"20\/10\/2024","Water_level":50.28},{"LocationName":"W123930076390001","RegionID":17,"state":29,"DistrictName":"Mandya","Block_Taluk":"Pandavapura","Village":"Melukote","Latitude":"12.65830000","Longitude":"76.65000000","Well_Depth":40,"date":null,"Water_level":null},{"LocationName":"W124100077280001","RegionID":17,"state":29,"DistrictName":"Ramanagara","Block_Taluk":"Harohalli","Village":"Harohalli","Latitude":"12.68330000","Longitude":"77.46670000","Well_Depth":60,"date":"20\/10\/2024","Water_level":14.95},{"LocationName":"W124104079374501","RegionID":18,"state":33,"DistrictName":"Tiruvannamalai","Block_Taluk":"Vembakkam","Village":"Akkur","Latitude":"12.68454167","Longitude":"79.62930833","Well_Depth":200,"date":null,"Water_level":null},{"LocationName":"W124110074585701","RegionID":19,"state":32,"DistrictName":"Kasaragod","Block_Taluk":"Manjeshwar","Village":"Paivalike","Latitude":"12.68630000","Longitude":"74.98250000","Well_Depth":200,"date":"20\/10\/2024","Water_level":16.87},{"LocationName":"W124200076332001","RegionID":17,"state":29,"DistrictName":"Mandya","Block_Taluk":"Krishnarajpet","Village":"Sindaghatta","Latitude":"12.70000000","Longitude":"76.55560000","Well_Depth":50,"date":"20\/10\/2024","Water_level":10.74},{"LocationName":"W124237074531101","RegionID":19,"state":32,"DistrictName":"Kasaragod","Block_Taluk":"Manjeshwar","Village":"Manjeshwar","Latitude":"12.72480000","Longitude":"74.88550000","Well_Depth":40,"date":"20\/10\/2024","Water_level":8.08},{"LocationName":"W124241077092901","RegionID":17,"state":29,"DistrictName":"Ramanagara","Block_Taluk":"Channapatna","Village":"Nagawara","Latitude":"12.71150000","Longitude":"77.15810000","Well_Depth":200,"date":"20\/10\/2024","Water_level":20.16},{"LocationName":"W124245074570901","RegionID":19,"state":32,"DistrictName":"Kasaragod","Block_Taluk":"Manjeshwar","Village":"Meenja","Latitude":"12.71270000","Longitude":"74.95250000","Well_Depth":200,"date":"20\/10\/2024","Water_level":10.97},{"LocationName":"W124415079503001","RegionID":18,"state":33,"DistrictName":"Kancheepuram","Block_Taluk":"Uttiramerur","Village":"Pullambakkam","Latitude":"12.73750000","Longitude":"79.84170000","Well_Depth":61.6,"date":"20\/10\/2024","Water_level":1.74},{"LocationName":"W124600075063001","RegionID":17,"state":29,"DistrictName":"Dakshina Kannada","Block_Taluk":"Bantval","Village":"Vittal (Ct)","Latitude":"12.76670000","Longitude":"75.10830000","Well_Depth":90,"date":"20\/10\/2024","Water_level":13.81},{"LocationName":"W124600076030001","RegionID":17,"state":29,"DistrictName":"Hassan","Block_Taluk":"Arkalgud","Village":"Arkalgud","Latitude":"12.76670000","Longitude":"76.05000000","Well_Depth":40,"date":"20\/10\/2024","Water_level":10.89},{"LocationName":"W124600078320001","RegionID":16,"state":28,"DistrictName":"Chittoor","Block_Taluk":"Ramakuppam","Village":"Virnamala","Latitude":"12.77621000","Longitude":"78.53499800","Well_Depth":200,"date":"20\/10\/2024","Water_level":49.14},{"LocationName":"W124600079160001","RegionID":18,"state":33,"DistrictName":"Tiruvannamalai","Block_Taluk":"Arani","Village":"12.Puthur","Latitude":"12.76670000","Longitude":"79.26670000","Well_Depth":48.3,"date":null,"Water_level":null},{"LocationName":"W124805076162001","RegionID":17,"state":29,"DistrictName":"Hassan","Block_Taluk":"Holenarsipur","Village":"Thattekere","Latitude":"12.80130000","Longitude":"76.27220000","Well_Depth":200,"date":"20\/10\/2024","Water_level":12.31},{"LocationName":"W124900076453001","RegionID":17,"state":29,"DistrictName":"Mandya","Block_Taluk":"Nagamangala","Village":"Nagamangala","Latitude":"12.81670000","Longitude":"76.75830000","Well_Depth":50,"date":"20\/10\/2024","Water_level":0.14},{"LocationName":"W124900077131501","RegionID":17,"state":29,"DistrictName":"Ramanagara","Block_Taluk":"Ramanagara","Village":"Jalamangala","Latitude":"12.81670000","Longitude":"77.22080000","Well_Depth":52,"date":"20\/10\/2024","Water_level":11.22},{"LocationName":"W125030075320001","RegionID":17,"state":29,"DistrictName":"Dakshina Kannada","Block_Taluk":"Kadaba","Village":"Shirady","Latitude":"12.84170000","Longitude":"75.53330000","Well_Depth":50,"date":"20\/10\/2024","Water_level":6.33},{"LocationName":"W125200077350001","RegionID":17,"state":29,"DistrictName":"Bengaluru Urban","Block_Taluk":"Bangalore City","Village":"Jayanagar","Latitude":"12.86670000","Longitude":"77.58330000","Well_Depth":45,"date":"20\/10\/2024","Water_level":10.61},{"LocationName":"W125205077390001","RegionID":17,"state":29,"DistrictName":"Bengaluru Urban","Block_Taluk":"Bangalore City","Village":"Singasandra","Latitude":"12.86810000","Longitude":"77.65000000","Well_Depth":73.7,"date":"20\/10\/2024","Water_level":28.98},{"LocationName":"W125205078263601","RegionID":16,"state":28,"DistrictName":"Chittoor","Block_Taluk":"Santhipuram Ho Arimuthanapalle","Village":"Dhandikuppam","Latitude":"12.86808000","Longitude":"78.44346900","Well_Depth":100,"date":"20\/10\/2024","Water_level":23.76},{"LocationName":"W125210077322001","RegionID":17,"state":29,"DistrictName":"Bengaluru Urban","Block_Taluk":"Bangalore City","Village":"Thalaghattapurapz","Latitude":"12.86940000","Longitude":"77.53890000","Well_Depth":50,"date":"20\/10\/2024","Water_level":5.76},{"LocationName":"W125240079080001","RegionID":18,"state":33,"DistrictName":"Vellore","Block_Taluk":"Vellore","Village":"Palavansathu","Latitude":"12.87780000","Longitude":"79.13330000","Well_Depth":57.9,"date":"20\/10\/2024","Water_level":3.73},{"LocationName":"W125321077424801","RegionID":17,"state":29,"DistrictName":"Bengaluru Urban","Block_Taluk":"Bengaluru East","Village":"Kodathi","Latitude":"12.88910000","Longitude":"77.71350000","Well_Depth":200,"date":"20\/10\/2024","Water_level":18.27},{"LocationName":"W125338076094601","RegionID":17,"state":29,"DistrictName":"Hassan","Block_Taluk":"Hassan","Village":"Mosale","Latitude":"12.89380000","Longitude":"76.16270000","Well_Depth":200,"date":"20\/10\/2024","Water_level":6.32},{"LocationName":"W125400078564501","RegionID":18,"state":33,"DistrictName":"Vellore","Block_Taluk":"Anaicut","Village":"Vunai","Latitude":"12.90000000","Longitude":"78.94580000","Well_Depth":51.55,"date":"20\/10\/2024","Water_level":13.32},{"LocationName":"W125430076230001","RegionID":17,"state":29,"DistrictName":"Hassan","Block_Taluk":"Channarayapatna","Village":"Channarayapatna","Latitude":"12.90830000","Longitude":"76.38330000","Well_Depth":60,"date":"20\/10\/2024","Water_level":3.64},{"LocationName":"W125444076025001","RegionID":17,"state":29,"DistrictName":"Hassan","Block_Taluk":"Hassan","Village":"Dundanayakanahalli","Latitude":"12.91220000","Longitude":"76.04720000","Well_Depth":200.2,"date":null,"Water_level":null},{"LocationName":"W125445080004501","RegionID":18,"state":33,"DistrictName":"Kancheepuram","Block_Taluk":"Kunnattur","Village":"Maganiyam R.F","Latitude":"12.91250000","Longitude":"80.01250000","Well_Depth":36.25,"date":"20\/10\/2024","Water_level":7.21},{"LocationName":"W125445080144501","RegionID":18,"state":33,"DistrictName":"Chennai","Block_Taluk":"Thomas Malai","Village":"Enchambakkam","Latitude":"12.91250000","Longitude":"80.24580000","Well_Depth":60,"date":null,"Water_level":null},{"LocationName":"W125500080063001","RegionID":18,"state":33,"DistrictName":"Chengalpattu","Block_Taluk":"St.Thomas Mount","Village":"Irumbuliyur","Latitude":"12.91670000","Longitude":"80.10830000","Well_Depth":45.4,"date":"20\/10\/2024","Water_level":4.61},{"LocationName":"W125507076071801","RegionID":17,"state":29,"DistrictName":"Hassan","Block_Taluk":"Hassan","Village":"Kittane","Latitude":"12.91860000","Longitude":"76.12160000","Well_Depth":200,"date":"20\/10\/2024","Water_level":2.51},{"LocationName":"W125600077443001","RegionID":17,"state":29,"DistrictName":"Bengaluru Urban","Block_Taluk":"Bangalore City","Village":"Varathur","Latitude":"12.93330000","Longitude":"77.74170000","Well_Depth":54,"date":"20\/10\/2024","Water_level":33.5},{"LocationName":"W125615078433001","RegionID":18,"state":33,"DistrictName":"Vellore","Block_Taluk":"Peranambattu","Village":"Erikuthi","Latitude":"12.93750000","Longitude":"78.72500000","Well_Depth":56.04,"date":"20\/10\/2024","Water_level":8.63},{"LocationName":"W125619077353201","RegionID":17,"state":29,"DistrictName":"Bengaluru Urban","Block_Taluk":"Bangalore City","Village":"Nimhans","Latitude":"12.93860000","Longitude":"77.59220000","Well_Depth":100.88,"date":"20\/10\/2024","Water_level":9.5},{"LocationName":"W125640077420001","RegionID":17,"state":29,"DistrictName":"Bengaluru Urban","Block_Taluk":"Bangalore City","Village":"Adugodi","Latitude":"12.94440000","Longitude":"77.70000000","Well_Depth":58.45,"date":"20\/10\/2024","Water_level":2.68},{"LocationName":"W125706077350801","RegionID":17,"state":29,"DistrictName":"Bengaluru Urban","Block_Taluk":"Bangalore City","Village":"Lalbagh Garden","Latitude":"12.95170000","Longitude":"77.58560000","Well_Depth":60,"date":"20\/10\/2024","Water_level":4.04},{"LocationName":"W125730077140001","RegionID":17,"state":29,"DistrictName":"Ramanagara","Block_Taluk":"Magadi","Village":"Magadi","Latitude":"12.95830000","Longitude":"77.23330000","Well_Depth":46.5,"date":"20\/10\/2024","Water_level":8.12},{"LocationName":"W125815077381501","RegionID":17,"state":29,"DistrictName":"Bengaluru Urban","Block_Taluk":"Bangalore City","Village":"Indiranagar","Latitude":"12.97080000","Longitude":"77.63750000","Well_Depth":80,"date":"20\/10\/2024","Water_level":13.32},{"LocationName":"W125830076530001","RegionID":17,"state":29,"DistrictName":"Tumakuru","Block_Taluk":"Kunigal","Village":"Yediyur","Latitude":"12.97500000","Longitude":"76.88330000","Well_Depth":60,"date":"20\/10\/2024","Water_level":20.11},{"LocationName":"W125845078154201","RegionID":17,"state":29,"DistrictName":"Kolar","Block_Taluk":"Bangarapet","Village":"Kgf","Latitude":"12.97920000","Longitude":"78.26170000","Well_Depth":90,"date":"20\/10\/2024","Water_level":15.58},{"LocationName":"W125930075173001","RegionID":17,"state":29,"DistrictName":"Dakshina Kannada","Block_Taluk":"Beltangadi","Village":"Beltangadi","Latitude":"12.99170000","Longitude":"75.29170000","Well_Depth":50,"date":"20\/10\/2024","Water_level":3.37},{"LocationName":"W130000076060001","RegionID":17,"state":29,"DistrictName":"Hassan","Block_Taluk":"Hassan","Village":"Hassan","Latitude":"13.00000000","Longitude":"76.10000000","Well_Depth":60,"date":"20\/10\/2024","Water_level":6.02},{"LocationName":"W130103076130801","RegionID":17,"state":29,"DistrictName":"Hassan","Block_Taluk":"Hassan","Village":"Gadenahalli","Latitude":"13.01750000","Longitude":"76.21890000","Well_Depth":200,"date":"20\/10\/2024","Water_level":17.33},{"LocationName":"W130120080133002","RegionID":18,"state":33,"DistrictName":"Chennai","Block_Taluk":"Chennai","Village":"Saidapet","Latitude":"13.02220000","Longitude":"80.22500000","Well_Depth":22.8,"date":null,"Water_level":null},{"LocationName":"W130145077020001","RegionID":17,"state":29,"DistrictName":"Tumakuru","Block_Taluk":"Kunigal","Village":"Nagavalli","Latitude":"13.02920000","Longitude":"77.03330000","Well_Depth":60,"date":"20\/10\/2024","Water_level":6.08},{"LocationName":"W130157077452901","RegionID":17,"state":29,"DistrictName":"Bengaluru Urban","Block_Taluk":"Bengaluru East","Village":"Kannamangala","Latitude":"13.03190000","Longitude":"77.75970000","Well_Depth":200,"date":"20\/10\/2024","Water_level":13.17},{"LocationName":"W130205077590501","RegionID":17,"state":29,"DistrictName":"Kolar","Block_Taluk":"Malur","Village":"Doddashivara","Latitude":"13.03470000","Longitude":"77.98470000","Well_Depth":73.7,"date":"20\/10\/2024","Water_level":39.81},{"LocationName":"W130215075540501","RegionID":17,"state":29,"DistrictName":"Hassan","Block_Taluk":"Belur","Village":"Bommanamane","Latitude":"13.03750000","Longitude":"75.90140000","Well_Depth":200,"date":"20\/10\/2024","Water_level":8.56},{"LocationName":"W130230079104001","RegionID":16,"state":28,"DistrictName":"Annamayya","Block_Taluk":"Kalakada","Village":"Kalakada","Latitude":"13.81849700","Longitude":"78.79322800","Well_Depth":200,"date":"20\/10\/2024","Water_level":9.91},{"LocationName":"W130303075592001","RegionID":17,"state":29,"DistrictName":"Hassan","Block_Taluk":"Hassan","Village":"Bylahalli","Latitude":"13.05080000","Longitude":"75.98890000","Well_Depth":165.7,"date":"20\/10\/2024","Water_level":4.84},{"LocationName":"W130345077204501","RegionID":17,"state":29,"DistrictName":"Bengaluru Rural","Block_Taluk":"Nelamangala","Village":"Yentiganahalli","Latitude":"13.06250000","Longitude":"77.34580000","Well_Depth":70,"date":"20\/10\/2024","Water_level":11.34},{"LocationName":"W130400077150001","RegionID":17,"state":29,"DistrictName":"Ramanagara","Block_Taluk":"Magadi","Village":"Solur","Latitude":"13.06670000","Longitude":"77.25000000","Well_Depth":60,"date":"20\/10\/2024","Water_level":13.62},{"LocationName":"W130400078093001","RegionID":17,"state":29,"DistrictName":"Kolar","Block_Taluk":"Bangarapet","Village":"Hudukula","Latitude":"13.06670000","Longitude":"78.15830000","Well_Depth":90,"date":null,"Water_level":null},{"LocationName":"W130430077261501","RegionID":17,"state":29,"DistrictName":"Bengaluru Urban","Block_Taluk":"Bengaluru North","Village":"Dasanapura","Latitude":"13.07500000","Longitude":"77.43750000","Well_Depth":60,"date":null,"Water_level":null},{"LocationName":"W130430077463001","RegionID":17,"state":29,"DistrictName":"Bengaluru Rural","Block_Taluk":"Hoskote","Village":"Hosakote","Latitude":"13.07500000","Longitude":"77.77500000","Well_Depth":66,"date":"20\/10\/2024","Water_level":19.82},{"LocationName":"W130522076072201","RegionID":17,"state":29,"DistrictName":"Hassan","Block_Taluk":"Hassan","Village":"Somanahalli","Latitude":"13.08940000","Longitude":"76.12280000","Well_Depth":177.28,"date":"20\/10\/2024","Water_level":21.61},{"LocationName":"W130538078385101","RegionID":16,"state":28,"DistrictName":"Chittoor","Block_Taluk":"Baireddipalle","Village":"Mekalanagireddypally","Latitude":"13.09395500","Longitude":"78.64759900","Well_Depth":100,"date":"20\/10\/2024","Water_level":17.8},{"LocationName":"W130605078453901","RegionID":16,"state":28,"DistrictName":"Chittoor","Block_Taluk":"Palamaner","Village":"M.Kotur","Latitude":"13.10369200","Longitude":"78.75291200","Well_Depth":200,"date":"20\/10\/2024","Water_level":8.37},{"LocationName":"W130630077094502","RegionID":17,"state":29,"DistrictName":"Ramanagara","Block_Taluk":"Magadi","Village":"Kuduru","Latitude":"13.10830000","Longitude":"77.16250000","Well_Depth":60,"date":"20\/10\/2024","Water_level":15.68},{"LocationName":"W130730075380001","RegionID":17,"state":29,"DistrictName":"Chikkamagaluru","Block_Taluk":"Mudigere","Village":"Beejavalli","Latitude":"13.12500000","Longitude":"75.63330000","Well_Depth":45,"date":"20\/10\/2024","Water_level":1.63},{"LocationName":"W130730077284002","RegionID":17,"state":29,"DistrictName":"Bengaluru Urban","Block_Taluk":"Yelahanka","Village":"Hesaraghatta","Latitude":"13.12500000","Longitude":"77.47780000","Well_Depth":60,"date":"20\/10\/2024","Water_level":14.29},{"LocationName":"W130852079115401","RegionID":16,"state":28,"DistrictName":"Chittoor","Block_Taluk":"Puthalapattu","Village":"M.Bandapally","Latitude":"13.30381500","Longitude":"79.12022100","Well_Depth":100,"date":"20\/10\/2024","Water_level":8.33},{"LocationName":"W130946078532801","RegionID":16,"state":28,"DistrictName":"Chittoor","Block_Taluk":"Bangarupalem","Village":"Govardhanagiri","Latitude":"13.16287400","Longitude":"78.89137800","Well_Depth":157,"date":"20\/10\/2024","Water_level":7.25},{"LocationName":"W131000075530002","RegionID":17,"state":29,"DistrictName":"Hassan","Block_Taluk":"Belur","Village":"Belur","Latitude":"13.16670000","Longitude":"75.88330000","Well_Depth":30,"date":"20\/10\/2024","Water_level":6.14},{"LocationName":"W131000076400001","RegionID":17,"state":29,"DistrictName":"Tumakuru","Block_Taluk":"Turuvekere","Village":"Turuvekere","Latitude":"13.16670000","Longitude":"76.66670000","Well_Depth":50,"date":"20\/10\/2024","Water_level":11.52},{"LocationName":"W131003078085801","RegionID":17,"state":29,"DistrictName":"Kolar","Block_Taluk":"Kolar","Village":"Moorandahalli","Latitude":"13.16750000","Longitude":"78.14940000","Well_Depth":207.84,"date":"20\/10\/2024","Water_level":31.32},{"LocationName":"W131022079364602","RegionID":18,"state":33,"DistrictName":"Thiruvallur","Block_Taluk":"Tiruttani","Village":"Tiruttani","Latitude":"13.17280000","Longitude":"79.61280000","Well_Depth":200,"date":null,"Water_level":null},{"LocationName":"W131111078541601","RegionID":16,"state":28,"DistrictName":"Chittoor","Block_Taluk":"Bangarupalem","Village":"Bangarupalem","Latitude":"13.19056500","Longitude":"78.90862700","Well_Depth":200,"date":"20\/10\/2024","Water_level":7.72},{"LocationName":"W131115077281501","RegionID":17,"state":29,"DistrictName":"Bengaluru Rural","Block_Taluk":"Dodballapur","Village":"Kanasavadi","Latitude":"13.18750000","Longitude":"77.47080000","Well_Depth":60,"date":"20\/10\/2024","Water_level":5.78},{"LocationName":"W131123079345903","RegionID":18,"state":33,"DistrictName":"Thiruvallur","Block_Taluk":"Tiruttani","Village":"Dharanivaragapuram","Latitude":"13.18970000","Longitude":"79.58310000","Well_Depth":200,"date":null,"Water_level":null},{"LocationName":"W131126079020401","RegionID":16,"state":28,"DistrictName":"Chittoor","Block_Taluk":"Yadamari","Village":"Mordanapally","Latitude":"13.19093200","Longitude":"79.03454800","Well_Depth":100,"date":null,"Water_level":null},{"LocationName":"W131150079221101","RegionID":16,"state":28,"DistrictName":"Chittoor","Block_Taluk":"Palasamudram","Village":"V R Kuppam","Latitude":"13.19734400","Longitude":"79.36992200","Well_Depth":100,"date":null,"Water_level":null},{"LocationName":"W131159078452101","RegionID":16,"state":28,"DistrictName":"Chittoor","Block_Taluk":"Palamaner","Village":"Palamaner","Latitude":"13.19972222","Longitude":"78.75583333","Well_Depth":30,"date":"20\/10\/2024","Water_level":3.88},{"LocationName":"W131239076273401","RegionID":17,"state":29,"DistrictName":"Tumakuru","Block_Taluk":"Tiptur","Village":"Rangapura","Latitude":"13.21090000","Longitude":"76.45950000","Well_Depth":200,"date":null,"Water_level":null},{"LocationName":"W131330074450001","RegionID":17,"state":29,"DistrictName":"Udupi","Block_Taluk":"Kapu","Village":"Kaup","Latitude":"13.22500000","Longitude":"74.75000000","Well_Depth":50,"date":"20\/10\/2024","Water_level":3.85},{"LocationName":"W131430076520001","RegionID":17,"state":29,"DistrictName":"Tumakuru","Block_Taluk":"Gubbi","Village":"Kadaba","Latitude":"13.24170000","Longitude":"76.86670000","Well_Depth":90,"date":null,"Water_level":null},{"LocationName":"W131432078540301","RegionID":16,"state":28,"DistrictName":"Chittoor","Block_Taluk":"Kuppam","Village":"T.Vankatapuram","Latitude":"13.24248400","Longitude":"78.90106900","Well_Depth":200,"date":"20\/10\/2024","Water_level":25.12},{"LocationName":"W131500077433001","RegionID":17,"state":29,"DistrictName":"Bengaluru Rural","Block_Taluk":"Devanhalli","Village":"Devenahalli","Latitude":"13.25000000","Longitude":"77.72500000","Well_Depth":60,"date":"20\/10\/2024","Water_level":17.08},{"LocationName":"W131530076284501","RegionID":17,"state":29,"DistrictName":"Tumakuru","Block_Taluk":"Tiptur","Village":"Tiptur","Latitude":"13.25830000","Longitude":"76.47920000","Well_Depth":50,"date":"20\/10\/2024","Water_level":17.37},{"LocationName":"W131535078130301","RegionID":17,"state":29,"DistrictName":"Kolar","Block_Taluk":"Kolar","Village":"Tirumani","Latitude":"13.25970000","Longitude":"78.21750000","Well_Depth":202.2,"date":null,"Water_level":null},{"LocationName":"W131639078573601","RegionID":16,"state":28,"DistrictName":"Chittoor","Block_Taluk":"Thavanampalle","Village":"Aragonda","Latitude":"13.27791200","Longitude":"78.96048600","Well_Depth":100,"date":"20\/10\/2024","Water_level":9.97},{"LocationName":"W131644079510301","RegionID":18,"state":33,"DistrictName":"Thiruvallur","Block_Taluk":"Poondi","Village":"Goonipalayam","Latitude":"13.27896389","Longitude":"79.85089167","Well_Depth":200,"date":"20\/10\/2024","Water_level":6.84},{"LocationName":"W131709076290401","RegionID":17,"state":29,"DistrictName":"Tumakuru","Block_Taluk":"Tiptur","Village":"Huchanahatti","Latitude":"13.28580000","Longitude":"76.48440000","Well_Depth":189.63,"date":"20\/10\/2024","Water_level":6.5},{"LocationName":"W131824076474901","RegionID":17,"state":29,"DistrictName":"Tumakuru","Block_Taluk":"Gubbi","Village":"Marishettyhalli","Latitude":"13.30670000","Longitude":"76.79690000","Well_Depth":202.3,"date":"20\/10\/2024","Water_level":32.16},{"LocationName":"W131830076393001","RegionID":17,"state":29,"DistrictName":"Tumakuru","Block_Taluk":"Tiptur","Village":"Kibbanahalli","Latitude":"13.30830000","Longitude":"76.65080000","Well_Depth":60,"date":"20\/10\/2024","Water_level":45.48},{"LocationName":"W131830077323001","RegionID":17,"state":29,"DistrictName":"Bengaluru Rural","Block_Taluk":"Dodballapur","Village":"Dodballapur","Latitude":"13.30830000","Longitude":"77.54170000","Well_Depth":70,"date":"20\/10\/2024","Water_level":14.98},{"LocationName":"W131839079151501","RegionID":16,"state":28,"DistrictName":"Chittoor","Block_Taluk":"Srirangarajapuram","Village":"Katikapally","Latitude":"13.30949200","Longitude":"79.25439400","Well_Depth":100,"date":null,"Water_level":null},{"LocationName":"W131900079410001","RegionID":16,"state":28,"DistrictName":"Chittoor","Block_Taluk":"Vijayapuram","Village":"Gollakandrika","Latitude":"13.32339500","Longitude":"79.69599600","Well_Depth":200,"date":null,"Water_level":null},{"LocationName":"W131913075000101","RegionID":17,"state":29,"DistrictName":"Udupi","Block_Taluk":"Karkal","Village":"Ajekar","Latitude":"13.32030000","Longitude":"75.00030000","Well_Depth":50,"date":"20\/10\/2024","Water_level":7.43},{"LocationName":"W131919079110901","RegionID":16,"state":28,"DistrictName":"Chittoor","Block_Taluk":"Penumuru","Village":"Ugranampalli","Latitude":"13.32203900","Longitude":"79.18587800","Well_Depth":200,"date":null,"Water_level":null},{"LocationName":"W131929079195001","RegionID":16,"state":28,"DistrictName":"Chittoor","Block_Taluk":"Srirangarajapuram","Village":"Pillarakuppam","Latitude":"13.32472222","Longitude":"79.33055556","Well_Depth":100,"date":null,"Water_level":null},{"LocationName":"W131930075464501","RegionID":17,"state":29,"DistrictName":"Chikkamagaluru","Block_Taluk":"Chikkamagaluru","Village":"Chikmagalur (Rural)","Latitude":"13.32500000","Longitude":"75.77920000","Well_Depth":46,"date":"20\/10\/2024","Water_level":1.14},{"LocationName":"W131931078270701","RegionID":16,"state":28,"DistrictName":"Annamayya","Block_Taluk":"Ramasamudram","Village":"Chokkandapalle","Latitude":"13.32547500","Longitude":"78.45215600","Well_Depth":200,"date":"20\/10\/2024","Water_level":39.42},{"LocationName":"W131939079252201","RegionID":18,"state":33,"DistrictName":"Thiruvallur","Block_Taluk":"Pallipattu","Village":"Veliagaram","Latitude":"13.32760000","Longitude":"79.42290000","Well_Depth":202.5,"date":"20\/10\/2024","Water_level":8.35},{"LocationName":"W132000077060002","RegionID":17,"state":29,"DistrictName":"Tumakuru","Block_Taluk":"Tumakuru","Village":"Tumkur","Latitude":"13.33330000","Longitude":"77.10000000","Well_Depth":60,"date":null,"Water_level":null},{"LocationName":"W132123076340701","RegionID":17,"state":29,"DistrictName":"Tumakuru","Block_Taluk":"Chiknayakanhalli","Village":"Sasalu","Latitude":"13.35640000","Longitude":"76.56860000","Well_Depth":181,"date":"20\/10\/2024","Water_level":11.47},{"LocationName":"W132152079114401","RegionID":16,"state":28,"DistrictName":"Chittoor","Block_Taluk":"Penumuru","Village":"Penumuru","Latitude":"13.36472200","Longitude":"79.19549600","Well_Depth":100,"date":null,"Water_level":null},{"LocationName":"W132200078420001","RegionID":16,"state":28,"DistrictName":"Chittoor","Block_Taluk":"Peddapanjani","Village":"T Kothur","Latitude":"13.35070200","Longitude":"78.68314400","Well_Depth":200,"date":null,"Water_level":null},{"LocationName":"W132221078062501","RegionID":17,"state":29,"DistrictName":"Chikkaballapura","Block_Taluk":"Chintamani","Village":"Doddaganjur","Latitude":"13.37250000","Longitude":"78.10690000","Well_Depth":477,"date":"20\/10\/2024","Water_level":26},{"LocationName":"W132226076380201","RegionID":17,"state":29,"DistrictName":"Tumakuru","Block_Taluk":"Chiknayakanhalli","Village":"Tarabenahalli","Latitude":"13.37390000","Longitude":"76.63390000","Well_Depth":190,"date":null,"Water_level":null},{"LocationName":"W132253076264901","RegionID":17,"state":29,"DistrictName":"Tumakuru","Block_Taluk":"Tiptur","Village":"Bommanahalli Thanda","Latitude":"13.38140000","Longitude":"76.44690000","Well_Depth":200,"date":"20\/10\/2024","Water_level":33.52},{"LocationName":"W132318076314501","RegionID":17,"state":29,"DistrictName":"Tumakuru","Block_Taluk":"Chiknayakanhalli","Village":"Madihalli","Latitude":"13.38830000","Longitude":"76.52920000","Well_Depth":200,"date":"20\/10\/2024","Water_level":6.46},{"LocationName":"W132400078033001","RegionID":17,"state":29,"DistrictName":"Chikkaballapura","Block_Taluk":"Chintamani","Village":"Chintamani","Latitude":"13.40000000","Longitude":"78.05830000","Well_Depth":90,"date":"20\/10\/2024","Water_level":3.77},{"LocationName":"W132430077013001","RegionID":17,"state":29,"DistrictName":"Tumakuru","Block_Taluk":"Tumakuru","Village":"Bellavi","Latitude":"13.40830000","Longitude":"77.02500000","Well_Depth":60,"date":"20\/10\/2024","Water_level":3.62},{"LocationName":"W132447079265601","RegionID":16,"state":28,"DistrictName":"Chittoor","Block_Taluk":"Karvetinagar","Village":"Karvetinagaram","Latitude":"13.41305556","Longitude":"79.44888889","Well_Depth":52,"date":"20\/10\/2024","Water_level":7.34},{"LocationName":"W132456078414701","RegionID":16,"state":28,"DistrictName":"Chittoor","Block_Taluk":"Chowdepalle","Village":"Pudipatla","Latitude":"13.39252100","Longitude":"78.63754600","Well_Depth":200,"date":"20\/10\/2024","Water_level":6.09},{"LocationName":"W132502079071501","RegionID":16,"state":28,"DistrictName":"Chittoor","Block_Taluk":"Puthalapattu","Village":"Chittipirala","Latitude":"13.41714300","Longitude":"79.12091200","Well_Depth":100,"date":null,"Water_level":null},{"LocationName":"W132511076263701","RegionID":17,"state":29,"DistrictName":"Tumakuru","Block_Taluk":"Chiknayakanhalli","Village":"Hosur","Latitude":"13.41970000","Longitude":"76.44360000","Well_Depth":200,"date":"20\/10\/2024","Water_level":2.69},{"LocationName":"W132545078503001","RegionID":16,"state":28,"DistrictName":"Chittoor","Block_Taluk":"Somala","Village":"Malleswarpuram","Latitude":"13.43773500","Longitude":"78.84595300","Well_Depth":200,"date":"20\/10\/2024","Water_level":3.19},{"LocationName":"W132903077113401","RegionID":17,"state":29,"DistrictName":"Tumakuru","Block_Taluk":"Koratagere","Village":"Tharaty","Latitude":"13.48420000","Longitude":"77.19280000","Well_Depth":202.3,"date":"20\/10\/2024","Water_level":0.18},{"LocationName":"W133000077320001","RegionID":17,"state":29,"DistrictName":"Chikkaballapura","Block_Taluk":"Gauribidanur","Village":"Machenahalli","Latitude":"13.50000000","Longitude":"77.53330000","Well_Depth":30,"date":"20\/10\/2024","Water_level":8.87},{"LocationName":"W133011078541601","RegionID":16,"state":28,"DistrictName":"Chittoor","Block_Taluk":"Ramakuppam","Village":"Guruvimoklapalle","Latitude":"12.91196200","Longitude":"78.53573700","Well_Depth":200,"date":"20\/10\/2024","Water_level":48.85},{"LocationName":"W133048076191601","RegionID":17,"state":29,"DistrictName":"Hassan","Block_Taluk":"Arsikere","Village":"Kanakatte","Latitude":"13.51330000","Longitude":"76.32100000","Well_Depth":200,"date":"20\/10\/2024","Water_level":2.39},{"LocationName":"W133100077140001","RegionID":17,"state":29,"DistrictName":"Tumakuru","Block_Taluk":"Koratagere","Village":"Koratagere","Latitude":"13.51670000","Longitude":"77.23330000","Well_Depth":50,"date":"20\/10\/2024","Water_level":0.86},{"LocationName":"W133219079263801","RegionID":16,"state":28,"DistrictName":"Tirupati","Block_Taluk":"Ramachandrapuram","Village":"Kammapalle","Latitude":"13.53882100","Longitude":"79.44398200","Well_Depth":200,"date":"20\/10\/2024","Water_level":6.39},{"LocationName":"W133321077543302","RegionID":17,"state":29,"DistrictName":"Chikkaballapura","Block_Taluk":"Sidlaghatta","Village":"Dibburahalli","Latitude":"13.55580000","Longitude":"77.90920000","Well_Depth":50,"date":"20\/10\/2024","Water_level":16.76},{"LocationName":"W133433076544101","RegionID":17,"state":29,"DistrictName":"Tumakuru","Block_Taluk":"Sira","Village":"Sidhlakona","Latitude":"13.57580000","Longitude":"76.91140000","Well_Depth":202.6,"date":"20\/10\/2024","Water_level":15.15},{"LocationName":"W133500076320002","RegionID":17,"state":29,"DistrictName":"Tumakuru","Block_Taluk":"Chiknayakanhalli","Village":"Huliyar","Latitude":"13.58330000","Longitude":"76.53330000","Well_Depth":60,"date":"20\/10\/2024","Water_level":5.89},{"LocationName":"W133629076316001","RegionID":17,"state":29,"DistrictName":"Tumakuru","Block_Taluk":"Chiknayakanhalli","Village":"Kenkere","Latitude":"13.60810000","Longitude":"76.53330000","Well_Depth":220.6,"date":"20\/10\/2024","Water_level":2.25},{"LocationName":"W133660076402301","RegionID":17,"state":29,"DistrictName":"Tumakuru","Block_Taluk":"Chiknayakanhalli","Village":"Bellara","Latitude":"13.61660000","Longitude":"76.67320000","Well_Depth":200,"date":"20\/10\/2024","Water_level":9.6},{"LocationName":"W133741076533401","RegionID":17,"state":29,"DistrictName":"Tumakuru","Block_Taluk":"Sira","Village":"Dodda Agrahara","Latitude":"13.62810000","Longitude":"76.89280000","Well_Depth":251.4,"date":null,"Water_level":null},{"LocationName":"W133755077341501","RegionID":17,"state":29,"DistrictName":"Chikkaballapura","Block_Taluk":"Gauribidanur","Village":"Gowribidanur","Latitude":"13.63190000","Longitude":"77.57080000","Well_Depth":90,"date":"20\/10\/2024","Water_level":16.12},{"LocationName":"W133900078285901","RegionID":16,"state":28,"DistrictName":"Annamayya","Block_Taluk":"Kurabalakota","Village":"Kurabalakota","Latitude":"13.65967300","Longitude":"78.48867800","Well_Depth":200,"date":"20\/10\/2024","Water_level":11},{"LocationName":"W133930074543001","RegionID":17,"state":29,"DistrictName":"Udupi","Block_Taluk":"Kundapura","Village":"Siddapur","Latitude":"13.65830000","Longitude":"74.90830000","Well_Depth":64.55,"date":"20\/10\/2024","Water_level":9.87},{"LocationName":"W134005078253001","RegionID":16,"state":28,"DistrictName":"Annamayya","Block_Taluk":"Kurabalakota","Village":"Errapalle","Latitude":"13.67247290","Longitude":"78.46095910","Well_Depth":200,"date":"20\/10\/2024","Water_level":21.17},{"LocationName":"W134006077301201","RegionID":17,"state":29,"DistrictName":"Chikkaballapura","Block_Taluk":"Gauribidanur","Village":"Vidhuraswath","Latitude":"13.66830000","Longitude":"77.50330000","Well_Depth":50,"date":"20\/10\/2024","Water_level":3.74},{"LocationName":"W134132077430501","RegionID":17,"state":29,"DistrictName":"Chikkaballapura","Block_Taluk":"Gudibanda","Village":"Kondavalahalli","Latitude":"13.69220000","Longitude":"77.71810000","Well_Depth":223.12,"date":"20\/10\/2024","Water_level":1},{"LocationName":"W134141076370702","RegionID":17,"state":29,"DistrictName":"Tumakuru","Block_Taluk":"Chiknayakanhalli","Village":"Dasudi","Latitude":"13.69470000","Longitude":"76.61870000","Well_Depth":200,"date":null,"Water_level":null},{"LocationName":"W134155078463501","RegionID":16,"state":28,"DistrictName":"Annamayya","Block_Taluk":"Kalikiri","Village":"Medikurthi","Latitude":"13.70517200","Longitude":"78.77318400","Well_Depth":200,"date":"20\/10\/2024","Water_level":9.12},{"LocationName":"W134200077292001","RegionID":16,"state":28,"DistrictName":"Sri Sathya Sai","Block_Taluk":"Hindupur","Village":"Chauluru","Latitude":"13.69786700","Longitude":"77.48527300","Well_Depth":115.54,"date":null,"Water_level":null},{"LocationName":"W134257078520901","RegionID":16,"state":28,"DistrictName":"Annamayya","Block_Taluk":"Kalikiri","Village":"T.Chandravaripalli","Latitude":"13.72281300","Longitude":"78.86357800","Well_Depth":145.5,"date":"20\/10\/2024","Water_level":14.91},{"LocationName":"W134316076120401","RegionID":17,"state":29,"DistrictName":"Chitradurga","Block_Taluk":"Hosdurga","Village":"Aladahalli","Latitude":"13.72120000","Longitude":"76.20100000","Well_Depth":200,"date":"20\/10\/2024","Water_level":4.8},{"LocationName":"W134500077120001","RegionID":17,"state":29,"DistrictName":"Tumakuru","Block_Taluk":"Madhugiri","Village":"Hosakere","Latitude":"13.75000000","Longitude":"77.20000000","Well_Depth":35.36,"date":null,"Water_level":null},{"LocationName":"W134510078435901","RegionID":16,"state":28,"DistrictName":"Annamayya","Block_Taluk":"Kalakada","Village":"Papireddygaripalli","Latitude":"13.78668300","Longitude":"78.73090000","Well_Depth":30,"date":"20\/10\/2024","Water_level":14.06},{"LocationName":"W134600078133001","RegionID":16,"state":28,"DistrictName":"Annamayya","Block_Taluk":"Peddathippasamudram","Village":"Pulikallu","Latitude":"13.77379900","Longitude":"78.22434800","Well_Depth":200,"date":"20\/10\/2024","Water_level":3.79},{"LocationName":"W134606076241101","RegionID":17,"state":29,"DistrictName":"Chitradurga","Block_Taluk":"Hosdurga","Village":"Mathodu","Latitude":"13.76840000","Longitude":"76.40300000","Well_Depth":200,"date":"20\/10\/2024","Water_level":3.27},{"LocationName":"W135021077061401","RegionID":16,"state":28,"DistrictName":"Sri Sathya Sai","Block_Taluk":"Rolla","Village":"Rolla","Latitude":"13.83920000","Longitude":"77.10370000","Well_Depth":200,"date":null,"Water_level":null},{"LocationName":"W135110075550001","RegionID":17,"state":29,"DistrictName":"Davangere","Block_Taluk":"Channagiri","Village":"Ubrani","Latitude":"13.85290000","Longitude":"75.91670000","Well_Depth":200,"date":"20\/10\/2024","Water_level":4.73},{"LocationName":"W135123075572101","RegionID":17,"state":29,"DistrictName":"Davangere","Block_Taluk":"Channagiri","Village":"Thavarekere","Latitude":"13.85640000","Longitude":"75.95580000","Well_Depth":200,"date":null,"Water_level":null},{"LocationName":"W135201076184001","RegionID":17,"state":29,"DistrictName":"Chitradurga","Block_Taluk":"Hosdurga","Village":"Devapura","Latitude":"13.86700000","Longitude":"76.31100000","Well_Depth":200,"date":null,"Water_level":null},{"LocationName":"W135216076133701","RegionID":17,"state":29,"DistrictName":"Chitradurga","Block_Taluk":"Hosdurga","Village":"Devigere","Latitude":"13.87120000","Longitude":"76.22700000","Well_Depth":200,"date":"20\/10\/2024","Water_level":6.8},{"LocationName":"W135253077093503","RegionID":16,"state":28,"DistrictName":"Sri Sathya Sai","Block_Taluk":"Rolla","Village":"Hottebetta","Latitude":"13.88138889","Longitude":"77.15972222","Well_Depth":200,"date":null,"Water_level":null},{"LocationName":"W135253079231702","RegionID":16,"state":28,"DistrictName":"Annamayya","Block_Taluk":"Kodur","Village":"Yanadipalli","Latitude":"13.88138890","Longitude":"79.38805560","Well_Depth":68.7,"date":"20\/10\/2024","Water_level":14.16},{"LocationName":"W135309076373701","RegionID":17,"state":29,"DistrictName":"Chitradurga","Block_Taluk":"Hiriyur","Village":"Gandhi Nagar","Latitude":"13.88590000","Longitude":"76.62680000","Well_Depth":200,"date":"20\/10\/2024","Water_level":5.72},{"LocationName":"W135315076252601","RegionID":17,"state":29,"DistrictName":"Chitradurga","Block_Taluk":"Hosdurga","Village":"Shivanekatte","Latitude":"13.88740000","Longitude":"76.42400000","Well_Depth":200,"date":"20\/10\/2024","Water_level":0.83},{"LocationName":"W135323077362701","RegionID":16,"state":28,"DistrictName":"Sri Sathya Sai","Block_Taluk":"Hindupur","Village":"Chalivendla","Latitude":"13.88970000","Longitude":"77.60750000","Well_Depth":200,"date":"20\/10\/2024","Water_level":9.85},{"LocationName":"W135522077572401","RegionID":17,"state":29,"DistrictName":"Chikkaballapura","Block_Taluk":"Bagepalli","Village":"Gorthipalli","Latitude":"13.92280000","Longitude":"77.95670000","Well_Depth":282,"date":"20\/10\/2024","Water_level":2.68},{"LocationName":"W135529076270501","RegionID":17,"state":29,"DistrictName":"Chitradurga","Block_Taluk":"Hosdurga","Village":"Lakkihalli","Latitude":"13.92480000","Longitude":"76.45130000","Well_Depth":200,"date":"20\/10\/2024","Water_level":13.26},{"LocationName":"W135602078192101","RegionID":16,"state":28,"DistrictName":"Sri Sathya Sai","Block_Taluk":"Tanakal","Village":"Korthikota","Latitude":"13.93388889","Longitude":"78.32250000","Well_Depth":200,"date":"20\/10\/2024","Water_level":8.19},{"LocationName":"W135635077161501","RegionID":16,"state":28,"DistrictName":"Sri Sathya Sai","Block_Taluk":"Madakasira","Village":"Madakasira","Latitude":"13.94070000","Longitude":"77.26320000","Well_Depth":48,"date":"20\/10\/2024","Water_level":14.28},{"LocationName":"W135743078132401","RegionID":16,"state":28,"DistrictName":"Sri Sathya Sai","Block_Taluk":"Nallacheruvu","Village":"Malreddy Palli","Latitude":"13.96220000","Longitude":"78.22310000","Well_Depth":200,"date":"20\/10\/2024","Water_level":3.13},{"LocationName":"W135755076120601","RegionID":17,"state":29,"DistrictName":"Chitradurga","Block_Taluk":"Holalkere","Village":"Avinatti","Latitude":"13.96540000","Longitude":"76.20170000","Well_Depth":200,"date":"20\/10\/2024","Water_level":17.76},{"LocationName":"W135815078003302","RegionID":16,"state":28,"DistrictName":"Sri Sathya Sai","Block_Taluk":"Amadagur","Village":"Mohammadabad","Latitude":"13.97130000","Longitude":"78.00800000","Well_Depth":200,"date":"20\/10\/2024","Water_level":16.46},{"LocationName":"W135815079423801","RegionID":16,"state":28,"DistrictName":"Tirupati","Block_Taluk":"Balayapalle","Village":"Kamakuru","Latitude":"13.97109700","Longitude":"79.71076900","Well_Depth":200,"date":"20\/10\/2024","Water_level":5.95},{"LocationName":"W135922078585801","RegionID":16,"state":28,"DistrictName":"Annamayya","Block_Taluk":"T.Sundupalle","Village":"Rayavaram","Latitude":"13.98950700","Longitude":"78.98303100","Well_Depth":200,"date":null,"Water_level":null},{"LocationName":"W135947077314901","RegionID":16,"state":28,"DistrictName":"Sri Sathya Sai","Block_Taluk":"Somandepalle","Village":"Gudipalli","Latitude":"13.99640000","Longitude":"77.63051000","Well_Depth":200,"date":"20\/10\/2024","Water_level":44.18},{"LocationName":"W140007079542401","RegionID":16,"state":28,"DistrictName":"Tirupati","Block_Taluk":"Ozili","Village":"Ojilli","Latitude":"14.00195600","Longitude":"79.90677500","Well_Depth":100,"date":"20\/10\/2024","Water_level":29.04},{"LocationName":"W140136077563101","RegionID":16,"state":28,"DistrictName":"Sri Sathya Sai","Block_Taluk":"Obuladevarecheruvu","Village":"Sallvandlapalle","Latitude":"14.02680000","Longitude":"77.94220000","Well_Depth":200,"date":null,"Water_level":null},{"LocationName":"W140207079321701","RegionID":16,"state":28,"DistrictName":"Tirupati","Block_Taluk":"Dakkili","Village":"Cheekirenipalli","Latitude":"14.03549300","Longitude":"79.53820600","Well_Depth":200,"date":"20\/10\/2024","Water_level":5.5},{"LocationName":"W140219078323501","RegionID":16,"state":28,"DistrictName":"Annamayya","Block_Taluk":"Galiveedu","Village":"Nakkalavandlapalli","Latitude":"14.03882700","Longitude":"78.54328000","Well_Depth":200,"date":null,"Water_level":null},{"LocationName":"W140227079183101","RegionID":16,"state":28,"DistrictName":"Annamayya","Block_Taluk":"Obulavaripalle","Village":"Mangampet","Latitude":"14.04102300","Longitude":"79.30846700","Well_Depth":32,"date":"20\/10\/2024","Water_level":11.74},